[
    {
        "id": "44163405-863e-43a4-9be0-37eff098443e",
        "name": "大秦會館",
        "latitude": 24.6775763,
        "longitude": 121.7138058,
        "county": "宜蘭縣",
        "township": "三星鄉",
        "address": "大埔六路236號",
        "phone": "0926728280"
    },
    {
        "id": "90aaec4c-01a5-403c-b070-d79e85bd26ee",
        "name": "牛鬥一角民宿野營渡假村",
        "latitude": 24.63590614,
        "longitude": 121.5690785,
        "county": "宜蘭縣",
        "township": "三星鄉",
        "address": "宜蘭縣三星鄉泰雅一路 525巷牛頭203號",
        "phone": null
    },
    {
        "id": "a3a6df9e-540f-4162-8784-3a1aa55e2555",
        "name": "稻庄休閒農場",
        "latitude": 24.66936092,
        "longitude": 121.6280508,
        "county": "宜蘭縣",
        "township": "三星鄉",
        "address": "宜蘭縣三星鄉福和路71巷16號",
        "phone": null
    },
    {
        "id": "54a4a635-5bb1-4225-915b-b281e473cbfe",
        "name": "山谷星空",
        "latitude": 24.635325,
        "longitude": 121.5837013,
        "county": "宜蘭縣",
        "township": "三星鄉",
        "address": "宜蘭縣三星鄉泰雅一路301巷71號",
        "phone": "0932164669"
    },
    {
        "id": "7289d3e1-e975-4f42-a816-2cb405ae913b",
        "name": "馬丁迷露",
        "latitude": 24.69431358,
        "longitude": 121.7286618,
        "county": "宜蘭縣",
        "township": "三星鄉",
        "address": "大洲路87巷36號",
        "phone": "0921099666"
    },
    {
        "id": "29b905fb-c40c-4ff4-9fcb-531fab487c7b",
        "name": "安農露營區",
        "latitude": 24.65544333,
        "longitude": 121.6474668,
        "county": "宜蘭縣",
        "township": "三星鄉",
        "address": "宜蘭市神農路1段130號",
        "phone": "0968488951"
    },
    {
        "id": "621d833b-1ae6-405c-b314-d8c69df90560",
        "name": "三星秘露營區",
        "latitude": 24.67102717,
        "longitude": 121.6859429,
        "county": "宜蘭縣",
        "township": "三星鄉",
        "address": "26648宜蘭縣三星鄉安農北路五段32號",
        "phone": null
    },
    {
        "id": "9977fb0e-eb39-4a1a-96cd-27bd211edca5",
        "name": "天際線茶園營地",
        "latitude": 24.67665,
        "longitude": 121.601629,
        "county": "宜蘭縣",
        "township": "大同鄉",
        "address": "泰雅路一段88巷88號",
        "phone": "0932359832"
    },
    {
        "id": "75ee494a-675e-44d1-b903-d13e8159020d",
        "name": "周家口露營區",
        "latitude": 24.60945403,
        "longitude": 121.6908189,
        "county": "宜蘭縣",
        "township": "大同鄉",
        "address": "宜蘭縣大同鄉寒溪巷70-27號",
        "phone": "0925367111"
    },
    {
        "id": "3bd185ad-f7d6-4570-a387-6d70c3a69ec1",
        "name": "景好露營場",
        "latitude": 24.69179779,
        "longitude": 121.6126976,
        "county": "宜蘭縣",
        "township": "大同鄉",
        "address": "宜蘭縣宜蘭市泰山路112巷5弄25號",
        "phone": "0916159727"
    },
    {
        "id": "8ac5d6f3-4e74-4a2f-b692-2af238439e8a",
        "name": "溪河木",
        "latitude": 24.656605,
        "longitude": 121.57666,
        "county": "宜蘭縣",
        "township": "大同鄉",
        "address": "宜蘭縣大同鄉松羅村松羅南巷115-7號",
        "phone": "0910356735"
    },
    {
        "id": "34bd3d2c-8530-4a50-ac43-b8c8c09818ee",
        "name": "Uwah露營區",
        "latitude": 24.623456,
        "longitude": 121.685002,
        "county": "宜蘭縣",
        "township": "大同鄉",
        "address": "華興巷42-18號",
        "phone": "0953517925"
    },
    {
        "id": "35585c29-c078-48e9-bc11-cf923648fc2c",
        "name": "星亮點Kayu露營區",
        "latitude": 24.678558,
        "longitude": 121.601031,
        "county": "宜蘭縣",
        "township": "大同鄉",
        "address": "宜蘭縣大同鄉崙埤村泰雅路一段88巷99號",
        "phone": "0925290965"
    },
    {
        "id": "7ef432cc-ad16-4261-8b66-4803d4a79eb3",
        "name": "武林秘密基地",
        "latitude": 24.62145527,
        "longitude": 121.685608,
        "county": "宜蘭縣",
        "township": "大同鄉",
        "address": "宜蘭縣五結鄉三吉二路80巷13弄16號",
        "phone": "0983005759"
    },
    {
        "id": "d43f87af-28cf-4297-8ad5-90c387280a79",
        "name": "斯揚莫那休閒露營區",
        "latitude": 24.51306149,
        "longitude": 121.4385216,
        "county": "宜蘭縣",
        "township": "大同鄉",
        "address": "宜蘭縣礁溪鄉漳福路192之10號",
        "phone": "0910549801"
    },
    {
        "id": "f8669e57-34ff-4130-81e8-308914d861dc",
        "name": "玉蘭茶園",
        "latitude": 24.67457854,
        "longitude": 121.5850311,
        "county": "宜蘭縣",
        "township": "大同鄉",
        "address": "宜蘭縣大同鄉松羅村玉蘭路80號",
        "phone": "0919283988"
    },
    {
        "id": "fb445a4f-c0a7-4049-b8b6-b9a1fd196c79",
        "name": "淺山休閒露營區",
        "latitude": 24.60362664,
        "longitude": 121.686915,
        "county": "宜蘭縣",
        "township": "大同鄉",
        "address": "宜蘭縣羅東鎮純精路2段248巷8號",
        "phone": "0926635282"
    },
    {
        "id": "e8758d4c-f3db-43e3-9ec2-fc4f9f51e15f",
        "name": "水之定莊園",
        "latitude": 24.700327,
        "longitude": 121.610145,
        "county": "宜蘭縣",
        "township": "大同鄉",
        "address": "宜蘭縣大同鄉中華村長嶺路187號",
        "phone": null
    },
    {
        "id": "d16f6003-66c1-479e-800a-c28d26c7c65e",
        "name": "露山林套房露營區",
        "latitude": 24.594803,
        "longitude": 121.686319,
        "county": "宜蘭縣",
        "township": "大同鄉",
        "address": "宜蘭縣大同鄉寒溪村古魯巷1-8號",
        "phone": "0910748875"
    },
    {
        "id": "ab8d6980-db19-4dde-842b-1b2dd5f581ae",
        "name": "摩西露營區",
        "latitude": 24.60851859,
        "longitude": 121.5180952,
        "county": "宜蘭縣",
        "township": "大同鄉",
        "address": "宜蘭縣大同鄉英士村林森24-50號",
        "phone": null
    },
    {
        "id": "4638fd73-9049-437f-929c-d41bf02b04b8",
        "name": "5859露營區",
        "latitude": 24.59498352,
        "longitude": 121.6840994,
        "county": "宜蘭縣",
        "township": "大同鄉",
        "address": "宜蘭縣大同鄉古魯巷1-1號",
        "phone": "0908093697"
    },
    {
        "id": "2871737a-2993-414e-8ac1-eedcf597d559",
        "name": "天梯露營區",
        "latitude": 24.677041,
        "longitude": 121.603768,
        "county": "宜蘭縣",
        "township": "大同鄉",
        "address": "泰雅路一段88巷66號",
        "phone": "0921591070"
    },
    {
        "id": "0bd0bf38-370d-45ec-a268-0d743a615575",
        "name": "依拜・吉娃斯生態園區",
        "latitude": 24.614719,
        "longitude": 121.522632,
        "county": "宜蘭縣",
        "township": "大同鄉",
        "address": "宜蘭市嵐峰路三段326巷2號2樓之1",
        "phone": "0920154207"
    },
    {
        "id": "a90ee35f-1f46-4fc9-bd7f-48bad3f65dba",
        "name": "雲端紅土咖啡露營區",
        "latitude": 24.69228006,
        "longitude": 121.6064993,
        "county": "宜蘭縣",
        "township": "大同鄉",
        "address": "宜蘭縣大同鄉崙埤村5鄰朝陽3-1號",
        "phone": "0911835587"
    },
    {
        "id": "327f18bb-ea18-4253-9b57-f64edfb25c10",
        "name": "一山半水露營區",
        "latitude": 24.62174162,
        "longitude": 121.703894,
        "county": "宜蘭縣",
        "township": "大同鄉",
        "address": "宜蘭縣大同鄉寒溪巷68之9號",
        "phone": "0916937663"
    },
    {
        "id": "67972165-a47c-4362-9ef3-9e070833ab6b",
        "name": "亞爸的山",
        "latitude": 24.41681178,
        "longitude": 121.3672426,
        "county": "宜蘭縣",
        "township": "大同鄉",
        "address": "泰雅路七段363之1號",
        "phone": "0976385026"
    },
    {
        "id": "d0639e1b-47e9-431c-8fa9-7d31b8cbf703",
        "name": "宇世格爵露營區",
        "latitude": 24.59361296,
        "longitude": 121.5361266,
        "county": "宜蘭縣",
        "township": "大同鄉",
        "address": "宜蘭縣大同鄉樂水村碼崙路90巷16號",
        "phone": null
    },
    {
        "id": "c83d8ecb-fd31-4a6b-9155-99a1577c6d13",
        "name": "櫻花溫泉休閒農場",
        "latitude": 24.633665,
        "longitude": 121.605189,
        "county": "宜蘭縣",
        "township": "大同鄉",
        "address": "宜蘭縣大同鄉復興村泰雅一路73號",
        "phone": null
    },
    {
        "id": "7898993c-9153-4279-b27a-0d338bb9ebe5",
        "name": "秘密基地露營區",
        "latitude": 24.661397,
        "longitude": 121.566116,
        "county": "宜蘭縣",
        "township": "大同鄉",
        "address": "宜蘭縣大同鄉泰雅路二段88巷211-9號.",
        "phone": "0976521583"
    },
    {
        "id": "84b60061-5db4-4ca9-be82-cd6b9ce7319f",
        "name": "夏諾營",
        "latitude": 24.66304711,
        "longitude": 121.5887417,
        "county": "宜蘭縣",
        "township": "大同鄉",
        "address": "宜蘭縣大同鄉泰雅路二段33巷31號之7",
        "phone": "0939124993"
    },
    {
        "id": "a6df222f-efcf-44bc-9bda-2cd30ed6f1b3",
        "name": "哇吉散露營區",
        "latitude": 24.62715,
        "longitude": 121.560853,
        "county": "宜蘭縣",
        "township": "大同鄉",
        "address": "泰雅一路牛鬥81之1號",
        "phone": "0912094473"
    },
    {
        "id": "231221a1-98c5-46b8-9927-931b65f4e5aa",
        "name": "飛亞蘭露營區",
        "latitude": 24.538569,
        "longitude": 121.455694,
        "county": "宜蘭縣",
        "township": "大同鄉",
        "address": "泰雅路五段46號",
        "phone": "0988066912"
    },
    {
        "id": "63fdab56-2a40-4d03-ae6b-b5dea6d80dd6",
        "name": "見望村親子休閒農場",
        "latitude": 24.635522,
        "longitude": 121.675201,
        "county": "宜蘭縣",
        "township": "大同鄉",
        "address": "宜蘭縣大同鄉寒溪村華興巷48-1號",
        "phone": null
    },
    {
        "id": "638289ec-3064-4fbe-8e08-d627de73111f",
        "name": "大同圓頂360露營區",
        "latitude": 24.6802,
        "longitude": 121.595035,
        "county": "宜蘭縣",
        "township": "大同鄉",
        "address": "267宜蘭縣大同鄉Unnamed Rd",
        "phone": "0933772874"
    },
    {
        "id": "841d6d04-3944-459c-a9de-c49cfedb699b",
        "name": "太平山森活趣渡假農場",
        "latitude": 24.5227352,
        "longitude": 121.4474264,
        "county": "宜蘭縣",
        "township": "大同鄉",
        "address": "泰雅路六段2巷6-3號",
        "phone": "0922497473"
    },
    {
        "id": "99636fc2-e24d-4558-bafb-2eab7124fe32",
        "name": "原最露營場",
        "latitude": 24.66395665,
        "longitude": 121.5771887,
        "county": "宜蘭縣",
        "township": "大同鄉",
        "address": "泰雅路2段46巷118-25號",
        "phone": "0926261041"
    },
    {
        "id": "37b51a12-f031-4cad-b145-a9464ace20bd",
        "name": "瑪崙菓園親子露營區",
        "latitude": 24.604367,
        "longitude": 121.543363,
        "county": "宜蘭縣",
        "township": "大同鄉",
        "address": "樂水路20巷150-1號",
        "phone": "0901228833"
    },
    {
        "id": "1393cfe1-4f0a-449e-aee6-3e2c6a11c191",
        "name": "歐浪哈勇露營區",
        "latitude": 24.60985707,
        "longitude": 121.6820979,
        "county": "宜蘭縣",
        "township": "大同鄉",
        "address": "宜蘭縣大同鄉華興巷1-61號",
        "phone": null
    },
    {
        "id": "7efb8365-c1b9-449d-a3b7-6f0849ebb5f4",
        "name": "星光山夜露營區",
        "latitude": 24.610982,
        "longitude": 121.689319,
        "county": "宜蘭縣",
        "township": "大同鄉",
        "address": "寒溪村寒溪巷71-6號",
        "phone": "0921956430"
    },
    {
        "id": "40728430-f85e-4b04-8df4-cfe95e3bdd47",
        "name": "沐野露營區",
        "latitude": 24.650488,
        "longitude": 121.569051,
        "county": "宜蘭縣",
        "township": "大同鄉",
        "address": "宜蘭縣大同鄉泰雅路二段92巷99-1號",
        "phone": "0922157971"
    },
    {
        "id": "8518bd71-42b2-454a-b9f3-6b9f38c9b216",
        "name": "五葉松林休閒露營區",
        "latitude": 24.66435533,
        "longitude": 121.5923908,
        "county": "宜蘭縣",
        "township": "大同鄉",
        "address": "宜蘭縣大同鄉松羅村泰雅路二段33巷31-1號",
        "phone": "0927806958"
    },
    {
        "id": "107abd04-c893-475c-b05b-710b5ca14cdb",
        "name": "彩虹杯杯館",
        "latitude": 24.613557,
        "longitude": 121.685643,
        "county": "宜蘭縣",
        "township": "大同鄉",
        "address": "267039宜蘭縣大同鄉華興巷1-7號",
        "phone": "0922633488"
    },
    {
        "id": "3f52a477-0f38-4fb1-9a95-abaa26eac947",
        "name": "幸福城景觀露營區",
        "latitude": 24.666572,
        "longitude": 121.584639,
        "county": "宜蘭縣",
        "township": "大同鄉",
        "address": "大同鄉泰雅路二段29巷58-6號",
        "phone": "0935668316,0966637131"
    },
    {
        "id": "80832b41-7b32-4439-bd13-143cfec61250",
        "name": "香格里拉休閒農場",
        "latitude": 24.631996,
        "longitude": 121.729249,
        "county": "宜蘭縣",
        "township": "冬山鄉",
        "address": "宜蘭縣冬山鄉大進村梅山路168號",
        "phone": null
    },
    {
        "id": "26d2879e-160d-4a9a-bcc5-cf5cde723366",
        "name": "希望之丘露營區",
        "latitude": 24.633714,
        "longitude": 121.72454,
        "county": "宜蘭縣",
        "township": "冬山鄉",
        "address": "宜蘭縣冬山鄉大進村小埤五路331號",
        "phone": null
    },
    {
        "id": "a1d04d5f-dcc7-438c-9517-44563013297d",
        "name": "田野森農場Morilife",
        "latitude": 24.63403718,
        "longitude": 121.7206899,
        "county": "宜蘭縣",
        "township": "冬山鄉",
        "address": "大進二路246號",
        "phone": null
    },
    {
        "id": "97e4de0d-f8f0-4efe-a90a-2162917af77a",
        "name": "松櫻秘境",
        "latitude": 24.61960877,
        "longitude": 121.7259401,
        "county": "宜蘭縣",
        "township": "冬山鄉",
        "address": "宜蘭縣冬山鄉中山路768巷28號-1號",
        "phone": null
    },
    {
        "id": "3b783dc6-a613-4ac5-b54c-f6ab50a8fd9a",
        "name": "峇里島漫活民宿",
        "latitude": 24.64111335,
        "longitude": 121.7799427,
        "county": "宜蘭縣",
        "township": "冬山鄉",
        "address": "宜蘭縣冬山鄉永和路160號",
        "phone": "0972720508"
    },
    {
        "id": "5a4596a8-00da-4326-a377-5b18b49ef28a",
        "name": "三富休閒農場",
        "latitude": 24.617374,
        "longitude": 121.754694,
        "county": "宜蘭縣",
        "township": "冬山鄉",
        "address": "宜蘭縣冬山鄉新寮二路161巷88號",
        "phone": null
    },
    {
        "id": "214a4397-670a-47da-a67f-14669cddc751",
        "name": "天ㄟ藝文露營區",
        "latitude": 24.64583936,
        "longitude": 121.7325582,
        "county": "宜蘭縣",
        "township": "冬山鄉",
        "address": null,
        "phone": null
    },
    {
        "id": "aae7743f-f01a-472e-8237-a6b4642d335c",
        "name": "舊寮之心",
        "latitude": 24.627531,
        "longitude": 121.74247,
        "county": "宜蘭縣",
        "township": "冬山鄉",
        "address": "宜蘭縣冬山鄉舊寮路131巷37號",
        "phone": "0937161773"
    },
    {
        "id": "df18e171-def7-4a71-8748-672984f8d1b9",
        "name": "梅花湖休閒農場 ",
        "latitude": 24.64845,
        "longitude": 121.734427,
        "county": "宜蘭縣",
        "township": "冬山鄉",
        "address": "宜蘭縣冬山鄉得安村環湖路66號",
        "phone": null
    },
    {
        "id": "49258eee-199d-4498-9e1e-7093a8f81430",
        "name": "東風有機休閒農場",
        "latitude": 24.61850485,
        "longitude": 121.7303618,
        "county": "宜蘭縣",
        "township": "冬山鄉",
        "address": "冬山鄉中山村中山路768巷11號",
        "phone": null
    },
    {
        "id": "719feee9-d935-43ac-babe-aa470930a043",
        "name": "又想露營趣",
        "latitude": 24.614275,
        "longitude": 121.794337,
        "county": "宜蘭縣",
        "township": "冬山鄉",
        "address": "269宜蘭縣冬山鄉照安一路360之1號",
        "phone": "0911963012"
    },
    {
        "id": "d4b378ba-2e7a-4f50-a926-4db9b65197d7",
        "name": "LoopLand 露營度假村",
        "latitude": 24.6344434,
        "longitude": 121.7664169,
        "county": "宜蘭縣",
        "township": "冬山鄉",
        "address": "宜蘭縣冬山鄉寶修路86號",
        "phone": null
    },
    {
        "id": "1a32c9e0-7096-4466-a4e1-ad8d685dfda0",
        "name": "梅山久久露營場",
        "latitude": 24.62612071,
        "longitude": 121.72447,
        "county": "宜蘭縣",
        "township": "冬山鄉",
        "address": "武罕一路57號",
        "phone": null
    },
    {
        "id": "e9f90623-54eb-4da4-8c21-4fed9a9cb960",
        "name": "同樂休閒綠園道",
        "latitude": 24.780464,
        "longitude": 121.737832,
        "county": "宜蘭縣",
        "township": "宜蘭市",
        "address": "宜蘭縣宜蘭市梅洲二路60號",
        "phone": null
    },
    {
        "id": "d888c0e2-0519-426c-8b07-053c2bb82e94",
        "name": "麗野莊園休閒農場",
        "latitude": 24.741841,
        "longitude": 121.780171,
        "county": "宜蘭縣",
        "township": "宜蘭市",
        "address": "宜蘭縣宜蘭市黎明一路88號",
        "phone": null
    },
    {
        "id": "800c5dfb-e133-4567-910e-1427470a970f",
        "name": "白雲楓香露營區",
        "latitude": 24.331821,
        "longitude": 121.751113,
        "county": "宜蘭縣",
        "township": "南澳鄉",
        "address": "宜蘭縣南澳鄉澳花村和平路9巷21-1號.",
        "phone": "0925009068"
    },
    {
        "id": "8147a511-49d9-4c06-9d14-aa44cb69d85a",
        "name": "露境東岳",
        "latitude": 24.525425,
        "longitude": 121.834061,
        "county": "宜蘭縣",
        "township": "南澳鄉",
        "address": "宜蘭縣南澳鄉蘇花路5段1巷5之1號",
        "phone": "0918008877"
    },
    {
        "id": "c8e55469-d086-41ef-bc94-5425494ccf24",
        "name": "依山傍水露營場",
        "latitude": 24.32962677,
        "longitude": 121.7698373,
        "county": "宜蘭縣",
        "township": "南澳鄉",
        "address": "新北市板橋區漢生東路193巷42號",
        "phone": "0903071039"
    },
    {
        "id": "5b1f1e26-c7f2-4d05-842a-d1249e70cf06",
        "name": "BULABULA.KC布拉布拉露營區(原八福原地)",
        "latitude": 24.526896,
        "longitude": 121.832341,
        "county": "宜蘭縣",
        "township": "南澳鄉",
        "address": "宜蘭縣南澳鄉81巷",
        "phone": null
    },
    {
        "id": "b8ce5d68-08e9-4671-937c-4bdeb187e06c",
        "name": "金洋山豬露營區",
        "latitude": 24.42851901,
        "longitude": 121.7484964,
        "county": "宜蘭縣",
        "township": "南澳鄉",
        "address": "宜蘭縣南澳鄉博愛路14之1號",
        "phone": "0988088203"
    },
    {
        "id": "cebcf589-1439-4701-981c-56e877207abe",
        "name": "天涯九號露營區",
        "latitude": 24.44678922,
        "longitude": 121.7639237,
        "county": "宜蘭縣",
        "township": "南澳鄉",
        "address": "橫山路13-16號",
        "phone": "0921040936"
    },
    {
        "id": "5acd5c51-ce92-4e89-9c0d-5a7c5aaa10fb",
        "name": "Myasa 迷雅薩農場",
        "latitude": 24.46387595,
        "longitude": 121.7866997,
        "county": "宜蘭縣",
        "township": "南澳鄉",
        "address": "宜蘭縣南澳鄉中正路9號",
        "phone": null
    },
    {
        "id": "e8de9366-e327-4f60-8294-a75268281c7a",
        "name": "金岳秘境露營區",
        "latitude": 24.46939277,
        "longitude": 121.765132,
        "county": "宜蘭縣",
        "township": "南澳鄉",
        "address": "宜蘭縣南澳鄉金岳村鹿皮路5-3號",
        "phone": null
    },
    {
        "id": "f897c4e1-3657-49fd-88ab-b11666dd4402",
        "name": "友露溪谷露營區",
        "latitude": 24.46552743,
        "longitude": 121.7770993,
        "county": "宜蘭縣",
        "township": "南澳鄉",
        "address": "宜蘭縣南澳鄉金岳村6鄰鹿皮路6之2號",
        "phone": "0970161388"
    },
    {
        "id": "5186e09a-98b8-413e-9df3-4588b5d9c5a0",
        "name": "老柯農莊",
        "latitude": 24.42529781,
        "longitude": 121.7453136,
        "county": "宜蘭縣",
        "township": "南澳鄉",
        "address": "宜蘭縣南澳鄉金洋村博愛路18-1號",
        "phone": "0919283363"
    },
    {
        "id": "7a0cbb0a-4b09-4514-9f1a-5b65bd160831",
        "name": "瀧雲山莊露營區(伊娜達漾)",
        "latitude": 24.44064626,
        "longitude": 121.7633494,
        "county": "宜蘭縣",
        "township": "南澳鄉",
        "address": "武塔村橫山路13-7號",
        "phone": "0910057727"
    },
    {
        "id": "802814a7-56d3-4204-8709-98b18897e570",
        "name": "鹿皮山水露營區",
        "latitude": 24.46582355,
        "longitude": 121.7613752,
        "county": "宜蘭縣",
        "township": "南澳鄉",
        "address": "金岳村鹿皮路3號",
        "phone": "0932070136"
    },
    {
        "id": "2a03d001-80ca-4900-bad7-66208df0de31",
        "name": "摩諾營地",
        "latitude": 24.4377,
        "longitude": 121.749566,
        "county": "宜蘭縣",
        "township": "南澳鄉",
        "address": "宜蘭縣南澳鄉金洋村金洋路2之2號",
        "phone": "0934282298"
    },
    {
        "id": "5987a8fb-5f23-47a8-88b0-8b68c3b03794",
        "name": "碧候溫泉園區露營場",
        "latitude": 24.504625,
        "longitude": 121.76237,
        "county": "宜蘭縣",
        "township": "南澳鄉",
        "address": "金岳路200號",
        "phone": null
    },
    {
        "id": "bf09f86f-38f7-4a85-b111-7c9012739d0f",
        "name": "春風谷露營區",
        "latitude": 24.48727972,
        "longitude": 121.7759126,
        "county": "宜蘭縣",
        "township": "南澳鄉",
        "address": "宜蘭縣南澳鄉金岳路98-28號",
        "phone": null
    },
    {
        "id": "0c935593-c13b-4486-ac69-63acdbf8d8cc",
        "name": "鄉野沐田休閒農場",
        "latitude": 24.43437,
        "longitude": 121.42184,
        "county": "宜蘭縣",
        "township": "員山鄉",
        "address": "八甲路15-16號",
        "phone": "0928219582"
    },
    {
        "id": "26537c87-1fac-4662-8622-730b230b44ae",
        "name": "雙連埤露營區",
        "latitude": 24.75466152,
        "longitude": 121.6383692,
        "county": "宜蘭縣",
        "township": "員山鄉",
        "address": "宜蘭縣員山鄉雙埤路19-5號",
        "phone": "0953028886"
    },
    {
        "id": "ab9f759e-465d-434e-9b68-97b095ba5ac1",
        "name": "鳳梨屋水上莊園",
        "latitude": 24.69598299,
        "longitude": 121.6181321,
        "county": "宜蘭縣",
        "township": "員山鄉",
        "address": "宜蘭縣員山嫏中華村長嶺路195號",
        "phone": null
    },
    {
        "id": "603a1f82-4104-4b9e-94a9-77f4dbc4ecad",
        "name": "花間露休閒露營區",
        "latitude": 24.69622989,
        "longitude": 121.6179393,
        "county": "宜蘭縣",
        "township": "員山鄉",
        "address": "長嶺路131號",
        "phone": "0922118665"
    },
    {
        "id": "e5959b65-67d5-4f3a-8603-3b152a968b85",
        "name": "庄腳所在休閒農場",
        "latitude": 24.780722,
        "longitude": 121.694958,
        "county": "宜蘭縣",
        "township": "員山鄉",
        "address": "宜蘭縣員山鄉坡城路69-9號",
        "phone": "0952070990"
    },
    {
        "id": "f3cccdac-1046-42c2-9b7e-d1c1a621839d",
        "name": "山門共享基地露營場",
        "latitude": 24.71413235,
        "longitude": 121.7018759,
        "county": "宜蘭縣",
        "township": "員山鄉",
        "address": "宜蘭縣員山鄉深福路128號",
        "phone": "0986669856"
    },
    {
        "id": "934b34e5-4daf-48e7-8bec-d65f31e4ee64",
        "name": "宜蘭深溝_車宿_露營",
        "latitude": 24.72226461,
        "longitude": 121.7252656,
        "county": "宜蘭縣",
        "township": "員山鄉",
        "address": "宜蘭縣員山鄉惠深二路一段82-8號",
        "phone": null
    },
    {
        "id": "90bbb8fb-160e-427e-9ae1-515b2d0ab827",
        "name": "鵲子山露營地",
        "latitude": 24.856751,
        "longitude": 121.773996,
        "county": "宜蘭縣",
        "township": "頭城鎮",
        "address": "宜蘭縣頭城鎮北宜路二段71巷60號",
        "phone": "0919900262"
    },
    {
        "id": "7a27a0ba-da5c-4744-b1de-dbb3045dde55",
        "name": "頭城濱海森林公園露營場",
        "latitude": 24.85056181,
        "longitude": 121.8291923,
        "county": "宜蘭縣",
        "township": "頭城鎮",
        "address": "協天路400號",
        "phone": null
    },
    {
        "id": "1d0d7df0-dbbc-4e8b-a151-f694f3cafdb9",
        "name": "微笑灣休閒農場",
        "latitude": 24.863045,
        "longitude": 121.824989,
        "county": "宜蘭縣",
        "township": "頭城鎮",
        "address": "宜蘭縣頭城鎮仙公路180巷50號",
        "phone": null
    },
    {
        "id": "9902f7aa-a1a4-4de9-beb7-380fbe2376e0",
        "name": "水旅居露營",
        "latitude": 24.8612361,
        "longitude": 121.828713,
        "county": "宜蘭縣",
        "township": "頭城鎮",
        "address": "宜蘭縣頭城鎮文化路205巷38-1號",
        "phone": "0912581913"
    },
    {
        "id": "54408e3a-1873-4728-b1ed-54865b1a476d",
        "name": "山海匯靜思露營區",
        "latitude": 24.868124,
        "longitude": 121.804526,
        "county": "宜蘭縣",
        "township": "頭城鎮",
        "address": "宜蘭縣頭城鎮福德坑路5-1號",
        "phone": "0925590329"
    },
    {
        "id": "2a81ef19-4ab9-46e9-8480-73d0882e3679",
        "name": "清林園林休閒農場",
        "latitude": 24.809145,
        "longitude": 121.786303,
        "county": "宜蘭縣",
        "township": "礁溪鄉",
        "address": "宜蘭縣礁溪鄉二龍村淇武蘭路111之8號",
        "phone": null
    },
    {
        "id": "7d391f16-8b44-4c51-a9d0-41a29d361ac8",
        "name": "得天露營車",
        "latitude": 24.82647306,
        "longitude": 121.7568719,
        "county": "宜蘭縣",
        "township": "礁溪鄉",
        "address": "五峰路69號",
        "phone": null
    },
    {
        "id": "305ddf17-afaa-44ee-ab8b-cd1eceb5fea8",
        "name": "跑馬古道露營區",
        "latitude": 24.84369768,
        "longitude": 121.7768363,
        "county": "宜蘭縣",
        "township": "礁溪鄉",
        "address": "宜蘭縣礁溪鄉白石腳路61號",
        "phone": null
    },
    {
        "id": "5f2b7f3f-5004-45c3-825f-7de99c529728",
        "name": "杉林奇蹟",
        "latitude": 24.815089,
        "longitude": 121.696394,
        "county": "宜蘭縣",
        "township": "礁溪鄉",
        "address": "262宜蘭縣礁溪鄉二結路94號",
        "phone": "0958636633"
    },
    {
        "id": "74752c9c-befc-43aa-854b-a0ef39e1ce24",
        "name": "礁溪休閒農業有限公司休閒農場",
        "latitude": 24.835621,
        "longitude": 121.753845,
        "county": "宜蘭縣",
        "township": "礁溪鄉",
        "address": "宜蘭縣礁溪鄉五峰路70巷50號",
        "phone": null
    },
    {
        "id": "7d40524e-a4b3-4e75-a679-5469b67e723d",
        "name": "露樹露營區(原白石腳露營區)",
        "latitude": 24.838186,
        "longitude": 121.780796,
        "county": "宜蘭縣",
        "township": "礁溪鄉",
        "address": "宜蘭縣羅東鎮河濱路30巷13號",
        "phone": null
    },
    {
        "id": "9f7fc99a-8205-4b52-8207-9c4dcf20f33e",
        "name": "926露營基地",
        "latitude": 24.817127,
        "longitude": 121.697139,
        "county": "宜蘭縣",
        "township": "礁溪鄉",
        "address": "宜蘭縣礁溪鄉匏崙村匏杓崙路150之50號",
        "phone": "0937162068"
    },
    {
        "id": "b4aa4702-d6fa-4a8b-9932-3eae7c3a42d7",
        "name": "大礁溪星海露營場",
        "latitude": 24.78486342,
        "longitude": 121.7188274,
        "county": "宜蘭縣",
        "township": "礁溪鄉",
        "address": "健康路二段９９號一樓",
        "phone": "0932263488"
    },
    {
        "id": "41877ca8-81d7-4c11-8b73-0c47eff47b0f",
        "name": "無憂花露營區",
        "latitude": 24.8431368,
        "longitude": 121.7751629,
        "county": "宜蘭縣",
        "township": "礁溪鄉",
        "address": "宜蘭縣礁溪鄉白石腳路157巷88號",
        "phone": null
    },
    {
        "id": "e60e404c-74bc-4b02-8811-80285174dcaf",
        "name": "合樂露營場",
        "latitude": 24.78315631,
        "longitude": 121.7273545,
        "county": "宜蘭縣",
        "township": "礁溪鄉",
        "address": "宜蘭縣礁溪鄉大忠路173號5樓",
        "phone": "0935208598"
    },
    {
        "id": "0cae9f96-0837-4c9f-b4e4-294304c59f4c",
        "name": "充電莊",
        "latitude": 24.808826,
        "longitude": 121.696143,
        "county": "宜蘭縣",
        "township": "礁溪鄉",
        "address": "宜蘭縣礁溪鄉匏崙村匏杓崙路150-8號",
        "phone": "0919347289"
    },
    {
        "id": "98f57124-aa53-4cfc-8434-9deefd4c48d3",
        "name": "鷗漫景觀營地",
        "latitude": 24.811983,
        "longitude": 121.705847,
        "county": "宜蘭縣",
        "township": "礁溪鄉",
        "address": "262宜蘭縣礁溪鄉匏杓崙路132-15號",
        "phone": "0975028669"
    },
    {
        "id": "3d118d99-8acb-4c0f-bc76-eb7788817660",
        "name": "橘子園露營區",
        "latitude": 24.84035646,
        "longitude": 121.7815742,
        "county": "宜蘭縣",
        "township": "礁溪鄉",
        "address": "宜蘭縣礁溪鄉白石腳路55號",
        "phone": "0919934039"
    },
    {
        "id": "c9ec6c38-bdff-4246-bad5-0f335a1e381e",
        "name": "夢土上休閒農場 (那一村豪華露營)",
        "latitude": 24.78500373,
        "longitude": 121.6818911,
        "county": "宜蘭縣",
        "township": "礁溪鄉",
        "address": "宜蘭縣礁溪鄉二結村（路）8-2號",
        "phone": null
    },
    {
        "id": "aeac78bc-8cd9-49eb-925c-0a28e9eb8978",
        "name": "Lemon Tree 檸檬樹露營區",
        "latitude": 24.786678,
        "longitude": 121.749328,
        "county": "宜蘭縣",
        "township": "礁溪鄉",
        "address": "宜蘭縣礁溪鄉龍潭路172巷16號.",
        "phone": null
    },
    {
        "id": "09399752-0529-4b78-84fe-91549e26d1c1",
        "name": "山谷樂生態露營園區",
        "latitude": 24.618825,
        "longitude": 121.730342,
        "county": "宜蘭縣",
        "township": "蘇澳鎮",
        "address": "聯絡地址:宜蘭縣冬山鄉中山村中山路802號",
        "phone": "0911820455"
    },
    {
        "id": "808a2e73-8675-4c4b-9288-433a60e93aa5",
        "name": "睡海邊露營區",
        "latitude": 24.516189,
        "longitude": 121.836179,
        "county": "宜蘭縣",
        "township": "蘇澳鎮",
        "address": "宜蘭縣蘇澳鎮東澳路121巷25號",
        "phone": "0932090655"
    },
    {
        "id": "c3b429ae-72d3-4d6a-bcdd-423b636868e1",
        "name": "武荖坑風景區露營場",
        "latitude": 24.6119909,
        "longitude": 121.8131919,
        "county": "宜蘭縣",
        "township": "蘇澳鎮",
        "address": "武荖坑路75號",
        "phone": null
    },
    {
        "id": "17b373e7-fd5c-40e2-b840-eb2308a9dc62",
        "name": "東豐露營區",
        "latitude": 23.33629541,
        "longitude": 121.339579,
        "county": "花蓮縣",
        "township": "玉里鎮",
        "address": null,
        "phone": null
    },
    {
        "id": "2f0dcba9-258f-4c92-844f-60407f39aa1d",
        "name": "山民治97漫活營地",
        "latitude": 24.126285,
        "longitude": 121.632992,
        "county": "花蓮縣",
        "township": "秀林鄉",
        "address": "民治97號",
        "phone": "0900054064"
    },
    {
        "id": "27b169ea-1fdd-4f01-a7a2-a9f90cb4cd1a",
        "name": "奇蹟露營農場",
        "latitude": 24.13824392,
        "longitude": 121.6052922,
        "county": "花蓮縣",
        "township": "秀林鄉",
        "address": null,
        "phone": null
    },
    {
        "id": "bdc1584e-312d-43e1-a90e-b9b3e597f3ed",
        "name": "佐倉高地",
        "latitude": 24.01217689,
        "longitude": 121.5521466,
        "county": "花蓮縣",
        "township": "秀林鄉",
        "address": null,
        "phone": null
    },
    {
        "id": "434cf29e-91c2-497f-93dd-e3ccd31d11a7",
        "name": "花蓮彩虹屋露營區",
        "latitude": 24.15548699,
        "longitude": 121.6539445,
        "county": "花蓮縣",
        "township": "秀林鄉",
        "address": null,
        "phone": null
    },
    {
        "id": "60fc87a4-a798-4d2e-92b9-25be558e09b3",
        "name": "巴罕營家-清水斷崖露營",
        "latitude": 24.15979129,
        "longitude": 121.6595264,
        "county": "花蓮縣",
        "township": "秀林鄉",
        "address": null,
        "phone": null
    },
    {
        "id": "42e241d6-cf86-4623-9149-6685399ef5a9",
        "name": "崇德瀅農場",
        "latitude": 24.14805584,
        "longitude": 121.6616882,
        "county": "花蓮縣",
        "township": "秀林鄉",
        "address": null,
        "phone": null
    },
    {
        "id": "523f99dc-a4cf-4dd8-af11-f8cefdb460ea",
        "name": "悠悠太魯閣露營村",
        "latitude": 24.12415759,
        "longitude": 121.6285692,
        "county": "花蓮縣",
        "township": "秀林鄉",
        "address": null,
        "phone": null
    },
    {
        "id": "f2ce80e6-cf8e-4323-a119-8bf55ca3379b",
        "name": "羅山露營區",
        "latitude": 23.20195695,
        "longitude": 121.2767821,
        "county": "花蓮縣",
        "township": "富里鄉",
        "address": null,
        "phone": null
    },
    {
        "id": "776e2a42-9f96-4404-a36d-c6811b4b5c9c",
        "name": "海憩露營區",
        "latitude": 24.10949667,
        "longitude": 121.6286149,
        "county": "花蓮縣",
        "township": "新城鄉",
        "address": null,
        "phone": null
    },
    {
        "id": "b608241d-1996-4fff-8a7f-6aa9391b2c03",
        "name": "踏浪星辰露營區",
        "latitude": 24.02598126,
        "longitude": 121.6318777,
        "county": "花蓮縣",
        "township": "新城鄉",
        "address": null,
        "phone": null
    },
    {
        "id": "7196bce5-a75b-4b43-a43f-6255a8ac92bf",
        "name": "後山星月",
        "latitude": 23.87584798,
        "longitude": 121.5594781,
        "county": "花蓮縣",
        "township": "壽豐鄉",
        "address": null,
        "phone": null
    },
    {
        "id": "d01ed989-bc1a-475b-a080-bbf2f72dbcec",
        "name": "牛山呼庭休閒園區",
        "latitude": 23.76368938,
        "longitude": 121.5691587,
        "county": "花蓮縣",
        "township": "壽豐鄉",
        "address": null,
        "phone": null
    },
    {
        "id": "04b4d77e-081c-45e6-8ea7-a0321bf2fb6f",
        "name": "花蓮鯉魚潭露營區",
        "latitude": 23.91669615,
        "longitude": 121.5057252,
        "county": "花蓮縣",
        "township": "壽豐鄉",
        "address": "池南村池南路二段90號",
        "phone": null
    },
    {
        "id": "6f5fca1d-548c-46f0-978c-357ed57a8ad4",
        "name": "鹽寮民宿露營區",
        "latitude": 23.91558495,
        "longitude": 121.6034411,
        "county": "花蓮縣",
        "township": "壽豐鄉",
        "address": null,
        "phone": null
    },
    {
        "id": "5adeb5b0-a104-4162-bff1-24eef3bf0527",
        "name": "花蓮海洋露營區",
        "latitude": 23.92234916,
        "longitude": 121.6069405,
        "county": "花蓮縣",
        "township": "壽豐鄉",
        "address": "大橋30之6號",
        "phone": null
    },
    {
        "id": "95e9e801-32b2-414d-8c53-00acea7538b1",
        "name": "石梯坪露營區",
        "latitude": 23.48417257,
        "longitude": 121.5115924,
        "county": "花蓮縣",
        "township": "豐濱鄉",
        "address": "花蓮縣豐濱鄉石梯坪52號",
        "phone": "0930596580"
    },
    {
        "id": "4eb6980c-5d3d-42a7-ada4-27991222c57a",
        "name": "磯崎好聚落高山森林基地",
        "latitude": 23.68454234,
        "longitude": 121.5468559,
        "county": "花蓮縣",
        "township": "豐濱鄉",
        "address": null,
        "phone": null
    },
    {
        "id": "f344e5ee-153d-401f-9432-5f48e022b000",
        "name": "海浪 Cafe 露營區",
        "latitude": 23.54074952,
        "longitude": 121.5068962,
        "county": "花蓮縣",
        "township": "豐濱鄉",
        "address": null,
        "phone": null
    },
    {
        "id": "2e1e9ce5-b8c0-4dd9-a1d3-dc9cecb4c1d9",
        "name": "金門金寧_中山林露營區",
        "latitude": 24.440854,
        "longitude": 118.355405,
        "county": "金門縣",
        "township": "金寧鄉",
        "address": "后盤村4鄰伯玉路二段 ４６０之１號",
        "phone": null
    },
    {
        "id": "b8b00338-b0e8-40c0-8f33-351283843e24",
        "name": "洞九的山莊",
        "latitude": 23.9558857,
        "longitude": 120.8226572,
        "county": "南投縣",
        "township": "中寮鄉",
        "address": "清水村頂坑巷12號",
        "phone": "0932561535"
    },
    {
        "id": "f770c1d7-4c5a-4477-b79f-8c9a2c97bfcf",
        "name": "長壽天然農場露營區",
        "latitude": 23.9151358,
        "longitude": 120.8143417,
        "county": "南投縣",
        "township": "中寮鄉",
        "address": "永樂路158號",
        "phone": "0972952039"
    },
    {
        "id": "262f5208-e56f-4bf2-a961-c5044f286d08",
        "name": "雲峯景觀莊園(雲の景觀莊園)",
        "latitude": 23.939829,
        "longitude": 120.825115,
        "county": "南投縣",
        "township": "中寮鄉",
        "address": "清水村瀧林巷35-13號",
        "phone": "0937767367"
    },
    {
        "id": "79a882bf-d6d3-4708-8668-d660c9002ef4",
        "name": "賞星月慕露營區",
        "latitude": 23.8955372,
        "longitude": 120.7818953,
        "county": "南投縣",
        "township": "中寮鄉",
        "address": "南投縣中寮鄉復興村復興巷31-12號旁",
        "phone": "0932057655"
    },
    {
        "id": "365c48cb-f743-4158-a56f-defd3123fb6c",
        "name": "森呼吸",
        "latitude": 23.9245307,
        "longitude": 120.8133036,
        "county": "南投縣",
        "township": "中寮鄉",
        "address": "合興村永樂路201號",
        "phone": "0936313139"
    },
    {
        "id": "50730e13-b0f8-497a-9ac6-2d29671ba4f1",
        "name": "本之山農場(本之山露營區)",
        "latitude": 23.88733,
        "longitude": 120.75952,
        "county": "南投縣",
        "township": "中寮鄉",
        "address": "愛鄉巷39-25號",
        "phone": "0912579478"
    },
    {
        "id": "dd425152-1b6b-4a4c-b7c6-637e5f96d6dd",
        "name": "雲淡風清營地",
        "latitude": 23.9386587,
        "longitude": 120.7983336,
        "county": "南投縣",
        "township": "中寮鄉",
        "address": "瀧淋巷 81-8 號",
        "phone": "0932596277"
    },
    {
        "id": "cfeaf1ac-3b98-476e-952c-ae2881232e55",
        "name": "鶴里翁露營區",
        "latitude": 23.9415135,
        "longitude": 120.7684353,
        "county": "南投縣",
        "township": "中寮鄉",
        "address": "南投縣中寮鄉龍南路151-20號",
        "phone": "0932658049"
    },
    {
        "id": "7f62cea7-95ae-4db0-b823-c0dc3afa9ba7",
        "name": "心花露FUN露營區",
        "latitude": 23.9367015,
        "longitude": 120.8083164,
        "county": "南投縣",
        "township": "中寮鄉",
        "address": "清水村瀧林巷56號",
        "phone": null
    },
    {
        "id": "73f45f11-2fab-42d1-8410-265496877a9b",
        "name": "潺潺森活",
        "latitude": 23.9055349,
        "longitude": 120.8005562,
        "county": "南投縣",
        "township": "中寮鄉",
        "address": "仙洞巷39-8 號",
        "phone": "0935080173"
    },
    {
        "id": "671561bb-0266-4654-9c3c-9ee16681b525",
        "name": "依星生態農場",
        "latitude": 23.96077,
        "longitude": 120.83453,
        "county": "南投縣",
        "township": "中寮鄉",
        "address": "清水村頂坑巷1-1號",
        "phone": "0932631420"
    },
    {
        "id": "df6cc8ce-2d13-44a4-a4ed-576f8c5d6b67",
        "name": "腸寶圖露營農場",
        "latitude": 23.88115,
        "longitude": 120.8036,
        "county": "南投縣",
        "township": "中寮鄉",
        "address": "福盛村福山路149號",
        "phone": "0932691802"
    },
    {
        "id": "2ef9299e-8cc2-4732-bb84-dff24b1abaff",
        "name": "言葉之庭露營區",
        "latitude": 23.9007125,
        "longitude": 120.8062038,
        "county": "南投縣",
        "township": "中寮鄉",
        "address": "永樂路134之2號",
        "phone": "0921742387"
    },
    {
        "id": "84093045-1a29-4048-a434-8ab59c0513f6",
        "name": "舞蝶到了露營區",
        "latitude": 23.87292,
        "longitude": 120.78514,
        "county": "南投縣",
        "township": "中寮鄉",
        "address": "永平路100-36號",
        "phone": "0939881231"
    },
    {
        "id": "42784ce9-c56d-4450-8cfb-78b6caa3af1b",
        "name": "海豚星露營區(疑似為晨星露營區遷址前舊名)",
        "latitude": 23.910725,
        "longitude": 120.811106,
        "county": "南投縣",
        "township": "中寮鄉",
        "address": "南投縣中寮鄉永樂路165-8號",
        "phone": "0980554443"
    },
    {
        "id": "f7ebe253-bc9d-49ec-98bc-1376493921f8",
        "name": "橋頭溪畔露營區",
        "latitude": 23.9108014,
        "longitude": 120.8109905,
        "county": "南投縣",
        "township": "中寮鄉",
        "address": "永樂路165-8號",
        "phone": "0933166997"
    },
    {
        "id": "d7d292f4-4aa2-402c-8535-9e4788563bab",
        "name": "迷露1850(原青青草原露營客棧)",
        "latitude": 24.059529,
        "longitude": 121.168031,
        "county": "南投縣",
        "township": "仁愛鄉",
        "address": "仁和路179-5號",
        "phone": "0921300610"
    },
    {
        "id": "e1bbac7a-f921-481e-820d-37db0b1914b5",
        "name": "士官長露營區",
        "latitude": 24.0237664,
        "longitude": 121.1694974,
        "county": "南投縣",
        "township": "仁愛鄉",
        "address": "南投縣仁愛鄉虎門巷68號",
        "phone": "0911237824"
    },
    {
        "id": "0522acf4-6512-472c-ac16-c0dccf651719",
        "name": "波露克爾咖啡露營棧(瑪羅伊休息站)",
        "latitude": 23.9678726,
        "longitude": 121.1199891,
        "county": "南投縣",
        "township": "仁愛鄉",
        "address": "南投縣仁愛鄉大安路107號",
        "phone": "0912998686"
    },
    {
        "id": "8979bb11-73af-4145-a2f9-ab655808926d",
        "name": "花鳥蟲鳴高山露營區",
        "latitude": 24.07446,
        "longitude": 121.17148,
        "county": "南投縣",
        "township": "仁愛鄉",
        "address": "大同村博望巷30-2號",
        "phone": "0913953559"
    },
    {
        "id": "bba8d3a0-881d-4ed2-8c78-0df5166c4fe6",
        "name": "快樂中原",
        "latitude": 24.0542975,
        "longitude": 120.9801336,
        "county": "南投縣",
        "township": "仁愛鄉",
        "address": "原名路43附7號",
        "phone": "0987375536"
    },
    {
        "id": "dcf75dd2-29d9-4c9b-9a7f-10fcfa823124",
        "name": "舒谷露營區",
        "latitude": 24.03042,
        "longitude": 121.17279,
        "county": "南投縣",
        "township": "仁愛鄉",
        "address": "無",
        "phone": "0966773686"
    },
    {
        "id": "2aaf8ac4-6331-42aa-abfb-7b9a19f9820f",
        "name": "蘋果園景觀露營區",
        "latitude": 24.0673,
        "longitude": 121.16662,
        "county": "南投縣",
        "township": "仁愛鄉",
        "address": "仁和路224附1號",
        "phone": "0907327935"
    },
    {
        "id": "28b40625-9808-4de5-b719-20a0ef109efb",
        "name": "武界開心茶園",
        "latitude": 23.9128887,
        "longitude": 121.0244494,
        "county": "南投縣",
        "township": "仁愛鄉",
        "address": "南投縣仁愛鄉法治村茶園巷18-1號",
        "phone": null
    },
    {
        "id": "7f5cbe3c-80cd-47cb-9f97-ac77fcfaf1e3",
        "name": "溪寶梅園",
        "latitude": 24.0745462,
        "longitude": 120.9511918,
        "county": "南投縣",
        "township": "仁愛鄉",
        "address": "明月巷95-1號",
        "phone": "0968285158"
    },
    {
        "id": "1fde6e4f-d57e-4204-a01e-a5ae90645348",
        "name": "瑪莉溫泉休閒農莊",
        "latitude": 24.024158,
        "longitude": 121.163843,
        "county": "南投縣",
        "township": "仁愛鄉",
        "address": "虎門巷100號",
        "phone": "0919695384"
    },
    {
        "id": "22118f18-5459-4ad9-83b0-87e6c39f52ee",
        "name": "灥流露營區",
        "latitude": 24.0377646,
        "longitude": 121.1581278,
        "county": "南投縣",
        "township": "仁愛鄉",
        "address": "南投縣仁愛鄉壽亭巷20-2號",
        "phone": "0915919557"
    },
    {
        "id": "2f16b599-2ad7-467a-b22b-add2e83070cd",
        "name": "愛和華林園",
        "latitude": 24.0470246,
        "longitude": 121.1588962,
        "county": "南投縣",
        "township": "仁愛鄉",
        "address": "遠定村39號",
        "phone": "0933450225"
    },
    {
        "id": "738eafba-2a80-4ad9-9dc9-9562d5a7dd29",
        "name": "圓山5號露營區",
        "latitude": 23.9153274,
        "longitude": 121.0510812,
        "county": "南投縣",
        "township": "仁愛鄉",
        "address": "武安路716之1號",
        "phone": "0986537921"
    },
    {
        "id": "ac60eb54-5b9e-483e-9598-3a3cad23d4e3",
        "name": "賽德克公主美食文化露營區",
        "latitude": 24.0127762,
        "longitude": 121.0888527,
        "county": "南投縣",
        "township": "仁愛鄉",
        "address": "南投縣仁愛鄉松原巷78-1號",
        "phone": "0980618781"
    },
    {
        "id": "a0a2fd9d-45ec-4b6b-99a5-c9281c65603e",
        "name": "姥姥莊園",
        "latitude": 24.08143,
        "longitude": 120.994,
        "county": "南投縣",
        "township": "仁愛鄉",
        "address": "山林巷6號",
        "phone": "0910593942"
    },
    {
        "id": "688cc79f-f4ce-4288-bc0a-415413d7fe5c",
        "name": "採茶媽媽景觀露營區",
        "latitude": 23.98964,
        "longitude": 121.10077,
        "county": "南投縣",
        "township": "仁愛鄉",
        "address": "無",
        "phone": "0912901038"
    },
    {
        "id": "18c3b988-1671-4b1e-b32c-12e50470382e",
        "name": "清境陽光露營",
        "latitude": 24.0358621,
        "longitude": 121.154192,
        "county": "南投縣",
        "township": "仁愛鄉",
        "address": "榮光巷50號之5",
        "phone": "0953990559"
    },
    {
        "id": "992e0858-052f-4451-ba83-7eaee6fb2fed",
        "name": "部落尋奇溫泉農場",
        "latitude": 24.0268603,
        "longitude": 121.1701913,
        "county": "南投縣",
        "township": "仁愛鄉",
        "address": "南投縣仁愛鄉虎門巷80號",
        "phone": null
    },
    {
        "id": "97e89414-db87-4c79-97d8-5e58f70b6b84",
        "name": "阿霞露營區",
        "latitude": 24.16305,
        "longitude": 121.1805,
        "county": "南投縣",
        "township": "仁愛鄉",
        "address": "溫泉巷1號",
        "phone": "0910775540"
    },
    {
        "id": "4d23d99e-bbc8-4639-9f1a-672ca0182587",
        "name": "朵娜朵露營區donato glamping",
        "latitude": 24.04493984,
        "longitude": 121.159261,
        "county": "南投縣",
        "township": "仁愛鄉",
        "address": "定遠新村25之3附1",
        "phone": "0980717623"
    },
    {
        "id": "a5af6fc2-f1ec-4560-9baf-362c78040bdb",
        "name": "虹谷有機農場",
        "latitude": 23.9429587,
        "longitude": 121.0772526,
        "county": "南投縣",
        "township": "仁愛鄉",
        "address": "清華巷124之2號",
        "phone": "0933626865"
    },
    {
        "id": "5ddc9f7c-d84b-4fc3-a4e7-61f6ed9c54f6",
        "name": "藍瑪司露營地",
        "latitude": 23.967957,
        "longitude": 121.120101,
        "county": "南投縣",
        "township": "仁愛鄉",
        "address": "親愛村大安路107附2號",
        "phone": "0978175585"
    },
    {
        "id": "dd7945ef-e595-40a8-8d1d-4a9430942df4",
        "name": "靼靶嶺森林露營區",
        "latitude": 23.8911409,
        "longitude": 121.0524871,
        "county": "南投縣",
        "township": "仁愛鄉",
        "address": null,
        "phone": "0912687986"
    },
    {
        "id": "84e47229-b77b-462a-b908-c654e9e2a3a7",
        "name": "馬赫坡9號秘境(原馬赫坡露營區)",
        "latitude": 24.01666,
        "longitude": 121.18733,
        "county": "南投縣",
        "township": "仁愛鄉",
        "address": "溫泉馬赫坡路9號精英村廬山",
        "phone": "0921066250"
    },
    {
        "id": "fb0fbb53-10d9-43cf-89ca-65869880702c",
        "name": "黑米咖啡露營區",
        "latitude": 23.96976,
        "longitude": 121.0924187,
        "county": "南投縣",
        "township": "仁愛鄉",
        "address": "無",
        "phone": "0905268975"
    },
    {
        "id": "b3d94c9f-9fc9-4303-af97-98767276dddd",
        "name": "露野森林SNUWING",
        "latitude": 24.02432,
        "longitude": 121.15627,
        "county": "南投縣",
        "township": "仁愛鄉",
        "address": "春陽村龍山巷25號",
        "phone": "0939646963"
    },
    {
        "id": "31d7b2c6-d165-4307-9b34-ee721cfa1f1e",
        "name": "松林農場露營區",
        "latitude": 24.02377,
        "longitude": 121.16589,
        "county": "南投縣",
        "township": "仁愛鄉",
        "address": "春陽村虎門巷96附1號",
        "phone": null
    },
    {
        "id": "cec5cc9a-3696-478b-9d25-fbfefd3c2e99",
        "name": "合歡仙境民宿露營區",
        "latitude": 24.0588283,
        "longitude": 121.1451034,
        "county": "南投縣",
        "township": "仁愛鄉",
        "address": "南投縣仁愛鄉福壽路介壽巷40號",
        "phone": null
    },
    {
        "id": "20fec106-9c22-4aff-a171-94d6f9289a51",
        "name": "畢祿山水源營地",
        "latitude": 24.2043518,
        "longitude": 121.3403014,
        "county": "南投縣",
        "township": "仁愛鄉",
        "address": "820線林道",
        "phone": null
    },
    {
        "id": "218a575e-e3cb-4be7-b76c-94f0cc1e42f7",
        "name": "武界觀景茶園露營區",
        "latitude": 23.9183867,
        "longitude": 121.0246882,
        "county": "南投縣",
        "township": "仁愛鄉",
        "address": "南投縣仁愛鄉茶園巷17附2號",
        "phone": "0966417299"
    },
    {
        "id": "3a27657e-d5f5-4627-b83b-64498b37acfd",
        "name": "溫莎花園民宿",
        "latitude": 24.0748894,
        "longitude": 121.170823,
        "county": "南投縣",
        "township": "仁愛鄉",
        "address": "南投縣仁愛鄉大同村博望巷39號",
        "phone": "0988105968"
    },
    {
        "id": "072c03a7-5e02-4d59-a5bd-87feb6e2191f",
        "name": "日出藏雲",
        "latitude": 23.9841,
        "longitude": 121.10474,
        "county": "南投縣",
        "township": "仁愛鄉",
        "address": "親和巷43之3附3號",
        "phone": "0928278267"
    },
    {
        "id": "28749870-0087-401c-8574-3cd487302bc1",
        "name": "非比露營區",
        "latitude": 23.9832,
        "longitude": 121.103968,
        "county": "南投縣",
        "township": "仁愛鄉",
        "address": "高峰巷70號",
        "phone": "0910922276"
    },
    {
        "id": "3391665d-71b8-4982-9c62-2a578a308b62",
        "name": "歐敏露營區(原酋長茅蘆露營區)",
        "latitude": 24.023568,
        "longitude": 121.1903066,
        "county": "南投縣",
        "township": "仁愛鄉",
        "address": "南投縣仁愛鄉榮華巷50號",
        "phone": null
    },
    {
        "id": "01756254-cc49-4627-b728-5c9858418e31",
        "name": "馬赫坡森林咖啡民宿",
        "latitude": 24.0230869,
        "longitude": 121.1834834,
        "county": "南投縣",
        "township": "仁愛鄉",
        "address": "南投縣仁愛鄉榮華巷1-1號",
        "phone": "0917777705"
    },
    {
        "id": "b00727de-6cd9-4ed5-80f2-69ce7baa6962",
        "name": "武界雲頂露營天地",
        "latitude": 23.9174753,
        "longitude": 121.0247449,
        "county": "南投縣",
        "township": "仁愛鄉",
        "address": "南投縣仁愛鄉法治村茶園巷17-1號",
        "phone": "0932615574"
    },
    {
        "id": "7678c5ce-38d1-4a9f-b81d-edda1b308dd9",
        "name": "月夢田",
        "latitude": 24.07967,
        "longitude": 120.9896,
        "county": "南投縣",
        "township": "仁愛鄉",
        "address": "山林巷6-2號",
        "phone": "0910566765"
    },
    {
        "id": "e572349b-9af1-40d7-8c98-a9fe44d5653a",
        "name": "山上有魚",
        "latitude": 24.06474,
        "longitude": 120.95513,
        "county": "南投縣",
        "township": "仁愛鄉",
        "address": "清風路",
        "phone": "0975120340"
    },
    {
        "id": "04aabed7-c83c-4e26-a135-0f7331898925",
        "name": "芭喇露營區生態休閒農莊",
        "latitude": 23.9069458,
        "longitude": 121.0520012,
        "county": "南投縣",
        "township": "仁愛鄉",
        "address": "武界林道",
        "phone": "0905112883"
    },
    {
        "id": "bcaefa9d-74f0-4a90-bea3-1962b0381b5e",
        "name": "沙庫斯露營區",
        "latitude": 24.0164984,
        "longitude": 121.1892008,
        "county": "南投縣",
        "township": "仁愛鄉",
        "address": "精英村榮華巷202-2號",
        "phone": "0911613026"
    },
    {
        "id": "df9eee65-aad3-43b7-82c7-7c9280d902cd",
        "name": "螢營的天空",
        "latitude": 24.0367618,
        "longitude": 121.1516304,
        "county": "南投縣",
        "township": "仁愛鄉",
        "address": "榮光巷1附2號",
        "phone": "0901005861"
    },
    {
        "id": "e08bfa62-c32c-468e-a021-3ec1883ae75b",
        "name": "原夢觀光農園",
        "latitude": 24.013965,
        "longitude": 121.0894206,
        "county": "南投縣",
        "township": "仁愛鄉",
        "address": "松原巷80號",
        "phone": "0987239826"
    },
    {
        "id": "d95bd1fe-b9ef-4cf4-9b11-a6bf8bae3d62",
        "name": "曉山秋",
        "latitude": 23.96501,
        "longitude": 121.09093,
        "county": "南投縣",
        "township": "仁愛鄉",
        "address": "親愛村親和巷150附5號",
        "phone": "0966598362"
    },
    {
        "id": "8748f088-e874-4bac-b8cf-c307aeb0c93a",
        "name": "飛瀑露營區feipucamping",
        "latitude": 24.03253656,
        "longitude": 121.1117121,
        "county": "南投縣",
        "township": "仁愛鄉",
        "address": "南豐村中正路1-1號",
        "phone": "0965658566"
    },
    {
        "id": "aa3cc5e8-8e14-4af9-b006-30604532364b",
        "name": "達巴斯露營區",
        "latitude": 23.908737,
        "longitude": 121.0517349,
        "county": "南投縣",
        "township": "仁愛鄉",
        "address": "栗溪路1號",
        "phone": "0966712612"
    },
    {
        "id": "1358330f-03ec-4829-8fb8-de045a965771",
        "name": "旅人蕉小棧(旅人蕉露營區)",
        "latitude": 24.06751,
        "longitude": 120.95352,
        "county": "南投縣",
        "township": "仁愛鄉",
        "address": "明月巷1附1號",
        "phone": "0982001602"
    },
    {
        "id": "bd02ec59-562f-4159-8223-9b2d2a953008",
        "name": "青天樂活露營區",
        "latitude": 23.9175,
        "longitude": 121.047642,
        "county": "南投縣",
        "township": "仁愛鄉",
        "address": "界山巷6之1號",
        "phone": null
    },
    {
        "id": "ae46224a-9af5-436d-a306-72ebb4c9aa84",
        "name": "雲窩森林露營區",
        "latitude": 23.9238772,
        "longitude": 121.0513508,
        "county": "南投縣",
        "township": "仁愛鄉",
        "address": "茶園巷1附2號",
        "phone": "0978377711"
    },
    {
        "id": "a283a74d-af5f-43f2-995a-3ce15ca8c734",
        "name": "星空谷露營地",
        "latitude": 23.8901308,
        "longitude": 120.9890694,
        "county": "南投縣",
        "township": "仁愛鄉",
        "address": "中正村平等巷1號",
        "phone": "0901005861"
    },
    {
        "id": "01960d6c-cb44-4e60-bef7-764b0e103597",
        "name": "漫活幸福露營區",
        "latitude": 24.1192901,
        "longitude": 121.1551857,
        "county": "南投縣",
        "township": "仁愛鄉",
        "address": "發祥村7鄰光復巷199附2號",
        "phone": "0932521031"
    },
    {
        "id": "4ba2f532-f3f1-4569-8c58-903d5b52048f",
        "name": "伴天聊露營區",
        "latitude": 24.0839351,
        "longitude": 120.990465,
        "county": "南投縣",
        "township": "仁愛鄉",
        "address": "新生村山林巷18附1號",
        "phone": "0936964799"
    },
    {
        "id": "f9a61b74-ec56-4406-ad98-be6c2e5d9763",
        "name": "卡度6號角落",
        "latitude": 23.9109,
        "longitude": 120.983925,
        "county": "南投縣",
        "township": "仁愛鄉",
        "address": "中正村光明路102-6號",
        "phone": "0970312818"
    },
    {
        "id": "507809a8-0d17-481b-91bb-6b4c78e8887f",
        "name": "紅香露營區",
        "latitude": 24.145841,
        "longitude": 121.178008,
        "county": "南投縣",
        "township": "仁愛鄉",
        "address": "發祥村溪門巷19-1號",
        "phone": "0935685389"
    },
    {
        "id": "8f723efb-75a7-4579-95b7-217769e21459",
        "name": "玩皮獵人藝棧",
        "latitude": 24.0193725,
        "longitude": 121.0870871,
        "county": "南投縣",
        "township": "仁愛鄉",
        "address": "無",
        "phone": "0937433976"
    },
    {
        "id": "37e3d180-22e7-41e1-8a7d-8f90cdbad148",
        "name": "諾亞方舟野地露營區",
        "latitude": 24.0273294,
        "longitude": 121.1439148,
        "county": "南投縣",
        "township": "仁愛鄉",
        "address": "南投縣仁愛鄉信義巷30之6號",
        "phone": null
    },
    {
        "id": "54a2811c-2d6f-43d0-b69b-e936d6179e8d",
        "name": "博拉廬露營區",
        "latitude": 24.0305203,
        "longitude": 121.1972274,
        "county": "南投縣",
        "township": "仁愛鄉",
        "address": "榮華巷203-3號",
        "phone": "0937248996"
    },
    {
        "id": "9285edca-2ee2-461d-ac58-f088a550d075",
        "name": "築露中原露營區",
        "latitude": 24.0661482,
        "longitude": 120.9778531,
        "county": "南投縣",
        "township": "仁愛鄉",
        "address": "原名路43附2號",
        "phone": "0932976796"
    },
    {
        "id": "6f63fa7c-7bd0-444c-9af4-234a432349ae",
        "name": "太魯灣溫泉露營區",
        "latitude": 24.0229731,
        "longitude": 121.1669268,
        "county": "南投縣",
        "township": "仁愛鄉",
        "address": "虎門巷97附1號",
        "phone": "0928177926"
    },
    {
        "id": "3c0f8560-bc65-41a4-bd88-e36fdc6572e5",
        "name": "山林好蒔光",
        "latitude": 23.9895278,
        "longitude": 121.1078327,
        "county": "南投縣",
        "township": "仁愛鄉",
        "address": "高峰巷70附1號",
        "phone": "0918575357"
    },
    {
        "id": "92599050-7bcc-4058-bd05-d1e03b840f70",
        "name": "白熊屋",
        "latitude": 24.0449,
        "longitude": 121.1608,
        "county": "南投縣",
        "township": "仁愛鄉",
        "address": "大同村定遠新村30-1號",
        "phone": "0936265411"
    },
    {
        "id": "d323abee-df33-4bc8-88c9-9fa8b18070ef",
        "name": "春陽.觀休閒露營區(觀溫泉營地)",
        "latitude": 24.02618,
        "longitude": 121.16926,
        "county": "南投縣",
        "township": "仁愛鄉",
        "address": "虎門巷135號",
        "phone": "0935755444"
    },
    {
        "id": "ca33386d-7b2c-4364-a6f1-d3e073d0e7b9",
        "name": "德貝頌露營區",
        "latitude": 24.1242696,
        "longitude": 121.1621104,
        "county": "南投縣",
        "township": "仁愛鄉",
        "address": "南投縣仁愛鄉瑞和路64號",
        "phone": "0935996150"
    },
    {
        "id": "fc5b4d9b-7981-4b07-9dc5-31ac2ac74c29",
        "name": "樹不老露營區",
        "latitude": 24.0766317,
        "longitude": 120.9852215,
        "county": "南投縣",
        "township": "仁愛鄉",
        "address": "山林巷46附2號",
        "phone": "0912648626"
    },
    {
        "id": "887644ba-f4de-4998-90bf-d1eb4e57a7c0",
        "name": "清翠露營園區",
        "latitude": 24.03927373,
        "longitude": 121.1462194,
        "county": "南投縣",
        "township": "仁愛鄉",
        "address": "大同村信義巷38附2號",
        "phone": "0933539638"
    },
    {
        "id": "891bb3b1-49d5-4c75-946e-ec29c58e4d1b",
        "name": "來來圓夢露營區DreamerCamp",
        "latitude": 23.90332,
        "longitude": 120.99043,
        "county": "南投縣",
        "township": "仁愛鄉",
        "address": "無",
        "phone": "0935926921"
    },
    {
        "id": "d75a5505-0128-486d-a325-e4c4cfe17263",
        "name": "辣妹子露營區",
        "latitude": 24.0282169,
        "longitude": 121.1605948,
        "county": "南投縣",
        "township": "仁愛鄉",
        "address": "虎門巷61-3號",
        "phone": "0939713335"
    },
    {
        "id": "f20ca284-d452-47a2-8b6d-29831732468e",
        "name": "迦南之地露營區",
        "latitude": 23.90854,
        "longitude": 121.04081,
        "county": "南投縣",
        "township": "仁愛鄉",
        "address": "投71鄉道34號",
        "phone": "0988785051"
    },
    {
        "id": "91954ad1-f789-4179-a109-b41ae850a083",
        "name": "木谷森林",
        "latitude": 23.9988,
        "longitude": 121.07969,
        "county": "南投縣",
        "township": "仁愛鄉",
        "address": "中正路105號",
        "phone": "0963169865"
    },
    {
        "id": "22f08b00-59d4-475b-8521-39b6288348a0",
        "name": "武界快樂營區",
        "latitude": 23.93041,
        "longitude": 121.03515,
        "county": "南投縣",
        "township": "仁愛鄉",
        "address": "無",
        "phone": "0937262954"
    },
    {
        "id": "3993a721-3b96-4447-b258-0a1d8baf7812",
        "name": "夢谷伊優達雅露營區",
        "latitude": 24.019468,
        "longitude": 121.087227,
        "county": "南投縣",
        "township": "仁愛鄉",
        "address": "信義巷",
        "phone": "0921920593"
    },
    {
        "id": "1cb7c77a-24ee-45d5-aca3-4fe186e7785c",
        "name": "富野溪露營區(原熊溯溪露營區)",
        "latitude": 24.06312,
        "longitude": 120.97975,
        "county": "南投縣",
        "township": "仁愛鄉",
        "address": "原名路43附5號",
        "phone": "0905865286"
    },
    {
        "id": "ccf5507a-392b-4a07-8a28-c68410d5705f",
        "name": "滿天馨露營區",
        "latitude": 24.02052,
        "longitude": 121.13676,
        "county": "南投縣",
        "township": "仁愛鄉",
        "address": "仁和路",
        "phone": "0982836007"
    },
    {
        "id": "ff9066fb-0b58-4b99-bef8-47d8bdd625eb",
        "name": "森林烈人",
        "latitude": 23.918829,
        "longitude": 121.046008,
        "county": "南投縣",
        "township": "仁愛鄉",
        "address": "茶園巷1附4號",
        "phone": "0975706651"
    },
    {
        "id": "17e34da5-3525-481c-9dfd-754114613a62",
        "name": "小瑞士花園",
        "latitude": 24.04430113,
        "longitude": 121.1563512,
        "county": "南投縣",
        "township": "仁愛鄉",
        "address": "南投縣仁愛鄉仁和路170號",
        "phone": null
    },
    {
        "id": "a9901cf8-53ed-4ffc-847c-49ba4ce805b5",
        "name": "清流溪畔露營區",
        "latitude": 24.0720293,
        "longitude": 120.9496957,
        "county": "南投縣",
        "township": "仁愛鄉",
        "address": "明月巷95-1附2號",
        "phone": "0933334966"
    },
    {
        "id": "8f1493ab-270e-4a9f-9964-b2f46ed76bf9",
        "name": "大塊森林",
        "latitude": 24.0797723,
        "longitude": 120.9873531,
        "county": "南投縣",
        "township": "仁愛鄉",
        "address": "南投縣仁愛鄉山林巷54618號附2",
        "phone": "0975277399"
    },
    {
        "id": "d6ae604b-61db-4910-8511-8fedc2b86975",
        "name": "相逢部落露營區",
        "latitude": 23.89464071,
        "longitude": 120.9908738,
        "county": "南投縣",
        "township": "仁愛鄉",
        "address": "平等巷1-10號",
        "phone": "0967046031"
    },
    {
        "id": "bc666227-f059-4c39-b3a0-170f50724750",
        "name": "卑里露營區",
        "latitude": 24.0237511,
        "longitude": 121.1629367,
        "county": "南投縣",
        "township": "仁愛鄉",
        "address": "南投縣仁愛鄉虎門巷100號",
        "phone": "0988957788"
    },
    {
        "id": "6c2a2aa8-fc88-46dc-9481-6589f9c1b4a9",
        "name": "川中島落羽松露營祕境",
        "latitude": 24.070265,
        "longitude": 120.947725,
        "county": "南投縣",
        "township": "仁愛鄉",
        "address": "清風路27-1號",
        "phone": "0938227885"
    },
    {
        "id": "dfd6791c-2af3-451e-a49f-f37e6b10e7e4",
        "name": "清流明月星空民宿/露營區",
        "latitude": 24.0957274,
        "longitude": 120.9549952,
        "county": "南投縣",
        "township": "仁愛鄉",
        "address": "明月巷100號",
        "phone": null
    },
    {
        "id": "f0ff521a-b04e-4040-acd6-935900a6adbe",
        "name": "小太陽景觀木屋",
        "latitude": 24.0604489,
        "longitude": 121.172597,
        "county": "南投縣",
        "township": "仁愛鄉",
        "address": "仁和路179號",
        "phone": "0963319928"
    },
    {
        "id": "96f800de-78f3-4ad9-a502-e1aac1427039",
        "name": "62階櫻花露營區",
        "latitude": 24.0536182,
        "longitude": 121.1607686,
        "county": "南投縣",
        "township": "仁愛鄉",
        "address": "南投縣仁愛鄉仁和路186之5附1號",
        "phone": "0937916296"
    },
    {
        "id": "caa6420f-3b5f-4084-ab33-3177a23fc6e0",
        "name": "哈爾斯塔特露營區",
        "latitude": 24.04094,
        "longitude": 121.15753,
        "county": "南投縣",
        "township": "仁愛鄉",
        "address": "無",
        "phone": "0928514215"
    },
    {
        "id": "f02c2b43-f2b6-4895-bb48-b716dc1f26f6",
        "name": "山鷹露營區",
        "latitude": 24.07411,
        "longitude": 120.9498,
        "county": "南投縣",
        "township": "仁愛鄉",
        "address": "明月巷95之1附2號",
        "phone": "0974188318"
    },
    {
        "id": "94fe34b8-2acf-4bf5-b014-a4b3a7f935b5",
        "name": "廬山仙境溫泉會館",
        "latitude": 24.0214127,
        "longitude": 121.1898409,
        "county": "南投縣",
        "township": "仁愛鄉",
        "address": "南投縣仁愛鄉榮華巷40附1號",
        "phone": "0910577192"
    },
    {
        "id": "bab83a69-b5e9-4c47-a06f-7f662add614f",
        "name": "一家人露營區",
        "latitude": 24.0273801,
        "longitude": 121.1438336,
        "county": "南投縣",
        "township": "仁愛鄉",
        "address": "南投縣仁愛鄉信義巷30-6附1",
        "phone": "0939564307"
    },
    {
        "id": "6c41a9e7-cb10-4bdf-acdb-65c86441666b",
        "name": "畫眉園露營區",
        "latitude": 24.077213,
        "longitude": 120.9866307,
        "county": "南投縣",
        "township": "仁愛鄉",
        "address": "山林巷10號",
        "phone": "0988720902"
    },
    {
        "id": "fe7cc077-fce1-4066-bf24-6928587350e9",
        "name": "曲冰岱牧露營區(曲冰金龍露營區)",
        "latitude": 23.934111,
        "longitude": 121.075358,
        "county": "南投縣",
        "township": "仁愛鄉",
        "address": "萬豐村清華巷138附3號",
        "phone": "0910622069"
    },
    {
        "id": "8b714e37-9930-47a5-b040-20d86349b3a8",
        "name": "櫻花村民宿",
        "latitude": 24.0255953,
        "longitude": 121.1634681,
        "county": "南投縣",
        "township": "仁愛鄉",
        "address": "南投縣仁愛鄉虎門巷54之1號",
        "phone": "0910583572"
    },
    {
        "id": "1f91f5dc-21f0-43c6-a109-0bbab371b27b",
        "name": "五六露營農場",
        "latitude": 24.01341,
        "longitude": 121.11941,
        "county": "南投縣",
        "township": "仁愛鄉",
        "address": "仁和路1附3號",
        "phone": "0982188005"
    },
    {
        "id": "1ef16066-f6c2-4df8-bc6f-85a45e97d44d",
        "name": "夢谷瀑布露營區",
        "latitude": 24.020343,
        "longitude": 121.087199,
        "county": "南投縣",
        "township": "仁愛鄉",
        "address": "無",
        "phone": "0980618781"
    },
    {
        "id": "9d83460c-eb61-4f2e-9a52-bf00d2332ff7",
        "name": "星願村露營區(原川中島七里香露營區)",
        "latitude": 24.0766283,
        "longitude": 120.9518223,
        "county": "南投縣",
        "township": "仁愛鄉",
        "address": "明月巷95之1附1號",
        "phone": "0931364697"
    },
    {
        "id": "3730cf08-6675-4269-a79a-55d14153f868",
        "name": "廬山日記露營區",
        "latitude": 24.01619788,
        "longitude": 121.1890371,
        "county": "南投縣",
        "township": "仁愛鄉",
        "address": "精英村榮華巷153號",
        "phone": "0932789816"
    },
    {
        "id": "7fe23f91-c8f6-4c7f-b553-c260c27183ed",
        "name": "清境彩虹露營區",
        "latitude": 24.0326004,
        "longitude": 121.1549755,
        "county": "南投縣",
        "township": "仁愛鄉",
        "address": "南投縣仁愛鄉大同村信義巷39附2號",
        "phone": "0909377797"
    },
    {
        "id": "ee9bea40-2fbb-41f3-ba81-1e43754ed5a0",
        "name": "彌格的露營區",
        "latitude": 23.91314716,
        "longitude": 121.0470913,
        "county": "南投縣",
        "township": "仁愛鄉",
        "address": "武安路22附3號",
        "phone": "0985883266"
    },
    {
        "id": "3546093a-9732-4d35-ac39-d23b9d114086",
        "name": "曲冰嫚遊露營區(里格列營地)",
        "latitude": 23.928099,
        "longitude": 121.071538,
        "county": "南投縣",
        "township": "仁愛鄉",
        "address": "萬豐村10鄰清華巷148附1號",
        "phone": "0905182807"
    },
    {
        "id": "ead48746-b463-4023-aa32-6c8b857cac78",
        "name": "雲裳谷露營區",
        "latitude": 24.06597,
        "longitude": 120.9481,
        "county": "南投縣",
        "township": "仁愛鄉",
        "address": "清風路27附8號",
        "phone": "0978903260"
    },
    {
        "id": "61f27fd1-5013-45b7-873a-9054dc7177e2",
        "name": "仙境傳說景觀露營區",
        "latitude": 24.0147835,
        "longitude": 121.1291571,
        "county": "南投縣",
        "township": "仁愛鄉",
        "address": "高峰巷70號",
        "phone": null
    },
    {
        "id": "2b2b3245-9264-4699-bf6b-b295f6947c16",
        "name": "田心小營地",
        "latitude": 24.06757,
        "longitude": 120.97106,
        "county": "南投縣",
        "township": "仁愛鄉",
        "address": "互助村原名路136附1號",
        "phone": null
    },
    {
        "id": "53ae2353-ff9c-4f4e-87c9-00f60e50bf91",
        "name": "161•森林/161•Bbuyu",
        "latitude": 24.04755,
        "longitude": 120.95894,
        "county": "南投縣",
        "township": "仁愛鄉",
        "address": "原名路66附5號號",
        "phone": "0921707177"
    },
    {
        "id": "c8ea4c87-6dad-4caa-92d6-96fa1e5b2ed4",
        "name": "武界松露露營區＆小木屋",
        "latitude": 23.902857,
        "longitude": 121.047635,
        "county": "南投縣",
        "township": "仁愛鄉",
        "address": "武安路1附6號",
        "phone": "0911103553"
    },
    {
        "id": "bd24f027-17f1-4d5e-85c1-efa65b667084",
        "name": "麒帆如露營山莊",
        "latitude": 23.9100116,
        "longitude": 121.0483967,
        "county": "南投縣",
        "township": "仁愛鄉",
        "address": "武界林道投71鄉道",
        "phone": "0912648245"
    },
    {
        "id": "d4e98438-d53e-4fc4-844c-6be22d072eab",
        "name": "翠峰露營區(卡爾小鎮)",
        "latitude": 24.1035065,
        "longitude": 121.194702,
        "county": "南投縣",
        "township": "仁愛鄉",
        "address": "仁和路235號",
        "phone": "0917231233"
    },
    {
        "id": "d01c66aa-41cd-4d61-aac3-f3105fd973b5",
        "name": "山中流域露營區",
        "latitude": 23.8250558,
        "longitude": 120.8514146,
        "county": "南投縣",
        "township": "水里鄉",
        "address": "水里五路",
        "phone": "0915001531"
    },
    {
        "id": "d37df87b-6920-45d1-8f0f-c7b04f6ddd33",
        "name": "美麗水里生態園",
        "latitude": 23.8209636,
        "longitude": 120.8578189,
        "county": "南投縣",
        "township": "水里鄉",
        "address": "南投縣水里鄉農富路93號",
        "phone": "0932890187"
    },
    {
        "id": "34103458-0297-481a-868d-d15390f00806",
        "name": "大灣農園露營區",
        "latitude": 23.8258421,
        "longitude": 120.8632216,
        "county": "南投縣",
        "township": "水里鄉",
        "address": "南投縣水里鄉大灣路11號",
        "phone": "0931564808"
    },
    {
        "id": "75f89e52-8976-4d29-8901-1698b8df1a54",
        "name": "浬賀露營區",
        "latitude": 23.82615,
        "longitude": 120.86065,
        "county": "南投縣",
        "township": "水里鄉",
        "address": "水里路",
        "phone": "0989729138"
    },
    {
        "id": "13de9e4f-cd87-4692-81e1-da1bac62bc98",
        "name": "采荷莊民宿",
        "latitude": 23.8022528,
        "longitude": 120.8651139,
        "county": "南投縣",
        "township": "水里鄉",
        "address": "南投縣水里鄉回窯路35巷7號",
        "phone": "0937594655"
    },
    {
        "id": "f8073566-43ff-4d47-bc54-248d4d5b547f",
        "name": "邊界Boundary露營區",
        "latitude": 23.7527,
        "longitude": 120.87172,
        "county": "南投縣",
        "township": "水里鄉",
        "address": "新南路",
        "phone": "0960087699"
    },
    {
        "id": "66f10a60-ef29-4e94-8894-40744ae89954",
        "name": "森十八休閒農場",
        "latitude": 23.8646515,
        "longitude": 120.6751937,
        "county": "南投縣",
        "township": "名間鄉",
        "address": "南投縣名間鄉田仔巷16-8號",
        "phone": "0911142958"
    },
    {
        "id": "7e92de7f-315e-4ed6-96cc-ce78112761b6",
        "name": "南田牧野家",
        "latitude": 23.8661479,
        "longitude": 120.6440585,
        "county": "南投縣",
        "township": "名間鄉",
        "address": "南投縣名間鄉籃口巷20號",
        "phone": null
    },
    {
        "id": "59005d89-b774-438b-bab8-651a54275b32",
        "name": "春秋茶事",
        "latitude": 23.8245196,
        "longitude": 120.6434239,
        "county": "南投縣",
        "township": "名間鄉",
        "address": "埔中巷32-7號",
        "phone": "0900204150"
    },
    {
        "id": "0fe86410-6f09-4dbe-b8b9-f484b91d4f29",
        "name": "水鏡農莊休閒農場",
        "latitude": 23.8758637,
        "longitude": 120.7002284,
        "county": "南投縣",
        "township": "名間鄉",
        "address": "南投縣名間鄉客庄巷17-6號",
        "phone": "0911609911"
    },
    {
        "id": "cd9973c7-10d3-4c37-a34a-7ceff1bfc58b",
        "name": "茶語露親子露營區",
        "latitude": 23.68192,
        "longitude": 120.73979,
        "county": "南投縣",
        "township": "竹山鎮",
        "address": "無",
        "phone": "0931648523"
    },
    {
        "id": "54b6f755-2bc9-41cc-a89c-f314a4f9756a",
        "name": "露自在",
        "latitude": 23.6736,
        "longitude": 120.76621,
        "county": "南投縣",
        "township": "竹山鎮",
        "address": "大鞍里羊灣巷236-1號",
        "phone": "0934061958"
    },
    {
        "id": "60b0268e-95d9-45e7-9b86-0106f2dc66a8",
        "name": "右下四角村",
        "latitude": 23.776094,
        "longitude": 120.709922,
        "county": "南投縣",
        "township": "竹山鎮",
        "address": "集山路二段892之18號",
        "phone": "0492658785"
    },
    {
        "id": "d3a39a9f-eca0-4e1a-812b-9b84ee347276",
        "name": "天山水茗茶",
        "latitude": 23.6595061,
        "longitude": 120.7636389,
        "county": "南投縣",
        "township": "竹山鎮",
        "address": "安山路35號",
        "phone": "0919670956"
    },
    {
        "id": "510a03cf-9101-400b-bae7-ab5be558cf17",
        "name": "大鞍星空露營區",
        "latitude": 23.7014602,
        "longitude": 120.7167006,
        "county": "南投縣",
        "township": "竹山鎮",
        "address": "南投縣竹山鎮竹寮巷19之15號",
        "phone": "0958917905"
    },
    {
        "id": "04c240ae-8693-48a2-a87b-2928cb2299e1",
        "name": "風秀露營fog showing camping(二城禧茶)",
        "latitude": 23.701066,
        "longitude": 120.73084,
        "county": "南投縣",
        "township": "竹山鎮",
        "address": "南投縣鹿谷鄉中湖巷16-39號(導航地址)",
        "phone": "0921301087"
    },
    {
        "id": "70fdc83f-d52d-4d54-b3be-70119a6dc8cb",
        "name": "雲野露營區",
        "latitude": 23.71231,
        "longitude": 120.71502,
        "county": "南投縣",
        "township": "竹山鎮",
        "address": "中坑路318號",
        "phone": "0988112366"
    },
    {
        "id": "15156e24-8c24-4c1e-9f89-ddac6516b78e",
        "name": "大鞍松林露營區",
        "latitude": 23.70192,
        "longitude": 120.72017,
        "county": "南投縣",
        "township": "竹山鎮",
        "address": "竹寮巷8號",
        "phone": "0921390129"
    },
    {
        "id": "e88b5df5-4526-461f-9744-3013de7a0c5f",
        "name": "Henyea Forest Life亨野草堂",
        "latitude": 23.66866862,
        "longitude": 120.7664178,
        "county": "南投縣",
        "township": "竹山鎮",
        "address": "杉林溪羊灣巷250-1號",
        "phone": "0918088815"
    },
    {
        "id": "68d69069-1128-4e4f-bbdd-37ddeb6c63dd",
        "name": "大鞍幸福農場",
        "latitude": 23.7118396,
        "longitude": 120.7144582,
        "county": "南投縣",
        "township": "竹山鎮",
        "address": "中坑路319號",
        "phone": "0909661177"
    },
    {
        "id": "84cc00ec-1627-4fe9-8825-7e5817d72255",
        "name": "雲頂星空",
        "latitude": 23.67904,
        "longitude": 120.74146,
        "county": "南投縣",
        "township": "竹山鎮",
        "address": "無",
        "phone": "0919012345"
    },
    {
        "id": "ca67a1ca-7466-4e76-b748-af3b3589fb41",
        "name": "深山林內",
        "latitude": 23.6877,
        "longitude": 120.71511,
        "county": "南投縣",
        "township": "竹山鎮",
        "address": "大鞍里頂林路累藤巷6-66號",
        "phone": "0914091455"
    },
    {
        "id": "c3f80662-65fe-405b-a073-4a99fafc1aad",
        "name": "回歸自然二八露營場",
        "latitude": 23.74051,
        "longitude": 120.71872,
        "county": "南投縣",
        "township": "竹山鎮",
        "address": "鹿山路606-7號",
        "phone": "0921301171"
    },
    {
        "id": "3601d713-21be-4582-a026-b829a6575343",
        "name": "上山樂活",
        "latitude": 23.6956014,
        "longitude": 120.7191819,
        "county": "南投縣",
        "township": "竹山鎮",
        "address": "頂林路461號",
        "phone": "0933779848"
    },
    {
        "id": "b3631c21-37f4-40d3-aa78-62f7f35b6d99",
        "name": "江澤休閒民宿",
        "latitude": 23.779618,
        "longitude": 120.67533,
        "county": "南投縣",
        "township": "竹山鎮",
        "address": "南投縣竹山鎮下坪路199號",
        "phone": "0980936047"
    },
    {
        "id": "5f283d5e-685e-44cf-b3bd-ddeb6eecb0a1",
        "name": "空中邊境景觀農場",
        "latitude": 23.699018,
        "longitude": 120.7133487,
        "county": "南投縣",
        "township": "竹山鎮",
        "address": "大林巷16-50號",
        "phone": "0905199305"
    },
    {
        "id": "e9095a39-8ceb-4ca2-b999-9e68460c6d1a",
        "name": "垂枝女貞農場",
        "latitude": 23.7700549,
        "longitude": 120.6748775,
        "county": "南投縣",
        "township": "竹山鎮",
        "address": "枋坪巷22-50號",
        "phone": "0932558513"
    },
    {
        "id": "f41d9a81-c8fc-448f-bfa4-43d8c7c7e2d9",
        "name": "竹山地心谷營區（2棧）",
        "latitude": 23.6667,
        "longitude": 120.73448,
        "county": "南投縣",
        "township": "竹山鎮",
        "address": "大鞍里頂林路590號",
        "phone": "0986332777"
    },
    {
        "id": "21875cb8-e5d2-402c-b933-a712169db5af",
        "name": "霧的羅曼史",
        "latitude": 23.6981434,
        "longitude": 120.7140591,
        "county": "南投縣",
        "township": "竹山鎮",
        "address": "南投縣竹山鎮頂林路累藤巷5之1號",
        "phone": null
    },
    {
        "id": "a7ceb1d6-d9f8-4a0a-ba07-1494d6204d8a",
        "name": "湖山水庫祕境",
        "latitude": 23.69742,
        "longitude": 120.64495,
        "county": "南投縣",
        "township": "竹山鎮",
        "address": "鯉行路152號",
        "phone": "0921655046"
    },
    {
        "id": "400d7314-12e8-48a0-b5db-cffbdea9e9ad",
        "name": "旭爸爸の窩",
        "latitude": 23.6565628,
        "longitude": 120.7684007,
        "county": "南投縣",
        "township": "竹山鎮",
        "address": "大鞍里安山路70-1號",
        "phone": "0919724219"
    },
    {
        "id": "79ac6cb1-5b56-42f4-9044-9836f66eff7b",
        "name": "迦南美地園區",
        "latitude": 23.7527635,
        "longitude": 120.6919969,
        "county": "南投縣",
        "township": "竹山鎮",
        "address": "中山路7之88號",
        "phone": "0928224484"
    },
    {
        "id": "097f2045-8a10-4e7c-a881-ae06a51e9cf4",
        "name": "麻吉露營區",
        "latitude": 23.6676798,
        "longitude": 120.7674096,
        "county": "南投縣",
        "township": "竹山鎮",
        "address": "鹿谷鄉羊仔灣236號",
        "phone": "0933584748"
    },
    {
        "id": "1fafc023-baf6-42fd-a62d-d9bdf507227d",
        "name": "杉林雲境露營區",
        "latitude": 23.6579906,
        "longitude": 120.7661271,
        "county": "南投縣",
        "township": "竹山鎮",
        "address": "安山路41-1號",
        "phone": "0975553823"
    },
    {
        "id": "c8b3130e-7591-413e-a1ab-235d8cf6a687",
        "name": "喆閒茶園露營區",
        "latitude": 23.6634202,
        "longitude": 120.7490285,
        "county": "南投縣",
        "township": "竹山鎮",
        "address": "南投縣竹山鎮五寮巷6-1號",
        "phone": "0965020980"
    },
    {
        "id": "118078e5-9fa5-4861-a0c9-0edacc365a30",
        "name": "哈比露營區",
        "latitude": 23.8144931,
        "longitude": 120.752848,
        "county": "南投縣",
        "township": "竹山鎮",
        "address": "南投縣竹山鎮集山路一段437號",
        "phone": "0966678138"
    },
    {
        "id": "0308d4b6-e3c4-47d3-b6c5-1a2dd148bea5",
        "name": "山湖水岸",
        "latitude": 23.69848,
        "longitude": 120.71456,
        "county": "南投縣",
        "township": "竹山鎮",
        "address": "竹山鎮大鞍里頂林路562-5號",
        "phone": "0915282578"
    },
    {
        "id": "685e190c-2be8-4731-a394-4b2338975a93",
        "name": "翠山",
        "latitude": 23.70374,
        "longitude": 120.71632,
        "county": "南投縣",
        "township": "竹山鎮",
        "address": "大鞍里竹寮巷1-3號",
        "phone": "0932010030"
    },
    {
        "id": "c2696279-ca1d-4c0e-9eba-205895fcf46d",
        "name": "牛母坪露營區",
        "latitude": 23.7002132,
        "longitude": 120.6455855,
        "county": "南投縣",
        "township": "竹山鎮",
        "address": "鲤魚里鲤行路134號",
        "phone": "0933651978"
    },
    {
        "id": "6f2d8390-2907-454a-8fb1-4815aa67ce1f",
        "name": "竹杉林園露營區",
        "latitude": 23.79618,
        "longitude": 120.67353,
        "county": "南投縣",
        "township": "竹山鎮",
        "address": "下坪里枋平巷22-100號",
        "phone": "0932661128"
    },
    {
        "id": "2e7dbda8-7122-4460-bedf-62c2d548313c",
        "name": "里山生態農場",
        "latitude": 23.6839246,
        "longitude": 120.737028,
        "county": "南投縣",
        "township": "竹山鎮",
        "address": "鹿寮巷2-2號",
        "phone": "0933536509"
    },
    {
        "id": "87d3e545-ced2-4339-b27c-767a8d55f92d",
        "name": "老茶緣露營場",
        "latitude": 23.7487202,
        "longitude": 120.7132589,
        "county": "南投縣",
        "township": "竹山鎮",
        "address": "鹿山路688號",
        "phone": "0939592165"
    },
    {
        "id": "b399bec4-a9eb-40ff-8a89-adb07bbe49df",
        "name": "竹屋部落民宿",
        "latitude": 23.765011,
        "longitude": 120.719071,
        "county": "南投縣",
        "township": "竹山鎮",
        "address": "南投縣竹山鎮東鄉路1-67號",
        "phone": null
    },
    {
        "id": "0553ccc3-5822-40b7-a632-dad35441d026",
        "name": "山思雲想",
        "latitude": 23.697535,
        "longitude": 120.7183,
        "county": "南投縣",
        "township": "竹山鎮",
        "address": "大林巷16-32號",
        "phone": "0921357692"
    },
    {
        "id": "03cfe38c-536a-49d1-a2d7-5b7574b2a72e",
        "name": "杉野露營區",
        "latitude": 23.6564352,
        "longitude": 120.7677144,
        "county": "南投縣",
        "township": "竹山鎮",
        "address": "安山路70號",
        "phone": "0932596090"
    },
    {
        "id": "f63492b4-55ab-4484-8a9a-98e6df3d9ddc",
        "name": "忘憂天空露營區",
        "latitude": 23.7014212,
        "longitude": 120.6922231,
        "county": "南投縣",
        "township": "竹山鎮",
        "address": "南投縣竹山鎮田南巷22-2",
        "phone": "0923142871"
    },
    {
        "id": "5d9f503f-d3f5-4ec9-89a5-f8fbad28dbf2",
        "name": "竹內露營區",
        "latitude": 23.6819712,
        "longitude": 120.7255602,
        "county": "南投縣",
        "township": "竹山鎮",
        "address": "頂林路588號55",
        "phone": "0919035308"
    },
    {
        "id": "9e673c92-dd74-42b0-8e4f-f6332b3e409c",
        "name": "瑞櫻山莊露營區",
        "latitude": 23.6975026,
        "longitude": 120.7162157,
        "county": "南投縣",
        "township": "竹山鎮",
        "address": "頂林路562-3號",
        "phone": "0933017038"
    },
    {
        "id": "86cf17b6-c8dc-4a89-92e9-c27f6b2a065f",
        "name": "延山露營區",
        "latitude": 23.7323332,
        "longitude": 120.7316827,
        "county": "南投縣",
        "township": "竹山鎮",
        "address": "南投縣鹿谷鄉和雅村愛鄉路1-2號",
        "phone": null
    },
    {
        "id": "5041ec55-204c-4e44-b5cc-143d7b989450",
        "name": "靜竹星空觀景露營區",
        "latitude": 23.7413405,
        "longitude": 120.7174274,
        "county": "南投縣",
        "township": "竹山鎮",
        "address": "鹿山路604號",
        "phone": "0935397685"
    },
    {
        "id": "3b4ec1be-5389-42bf-b4eb-001bea61114f",
        "name": "雙龍景觀營地(雙龍橋)",
        "latitude": 23.7856043,
        "longitude": 120.9467607,
        "county": "南投縣",
        "township": "信義鄉",
        "address": "光復巷11-5號",
        "phone": "0921355088"
    },
    {
        "id": "401c2ea9-7cd2-4026-904d-b7d2628a8ea1",
        "name": "阿里曼山莊",
        "latitude": 23.7990983,
        "longitude": 120.9980809,
        "county": "南投縣",
        "township": "信義鄉",
        "address": "丹大林道舊線",
        "phone": "0935998957"
    },
    {
        "id": "8a12ae06-12f4-405a-b25d-4bf4c204bb52",
        "name": "石方緣",
        "latitude": 23.79262,
        "longitude": 120.9654,
        "county": "南投縣",
        "township": "信義鄉",
        "address": "開信巷土虱灣1-1號",
        "phone": "0982017628"
    },
    {
        "id": "3bf861a7-76e2-41d9-9502-7e92ffece666",
        "name": "拿哥的秘密基地浪漫露營區",
        "latitude": 23.8245493,
        "longitude": 120.9417081,
        "county": "南投縣",
        "township": "信義鄉",
        "address": "和平巷85~3號",
        "phone": "0985838322"
    },
    {
        "id": "026957de-614c-4ff4-8dbd-79b026607405",
        "name": "玉山星空露營區",
        "latitude": 23.557782,
        "longitude": 120.922959,
        "county": "南投縣",
        "township": "信義鄉",
        "address": "南投縣信義鄉東埔村開高巷30號",
        "phone": "0927788966"
    },
    {
        "id": "99e95c1f-5c06-4540-9488-72341602813b",
        "name": "源頭溫泉民宿",
        "latitude": 23.5649401,
        "longitude": 120.9324414,
        "county": "南投縣",
        "township": "信義鄉",
        "address": "開高巷61-6號",
        "phone": "0923100510"
    },
    {
        "id": "44ba2477-cf4d-427e-b759-2ac906fc63ce",
        "name": "瑪莎魯營地",
        "latitude": 23.7084164,
        "longitude": 120.8533503,
        "county": "南投縣",
        "township": "信義鄉",
        "address": "玉山路117-2號",
        "phone": "0982369049"
    },
    {
        "id": "124668f8-813b-4f5d-8632-71406604eb54",
        "name": "瑪兒屋營地",
        "latitude": 23.6310644,
        "longitude": 120.8812423,
        "county": "南投縣",
        "township": "信義鄉",
        "address": "信筆巷170-5號",
        "phone": "0928666571"
    },
    {
        "id": "2d236569-0778-439a-a2b5-9c6eaf51eeaa",
        "name": "都構密思木屋民宿",
        "latitude": 23.598355,
        "longitude": 120.881031,
        "county": "南投縣",
        "township": "信義鄉",
        "address": "南投縣信義鄉望和巷10之10號",
        "phone": "0926698523"
    },
    {
        "id": "9c6f193c-5ecf-4d7f-a97e-feee5a2f0145",
        "name": "哈努英餐坊營地",
        "latitude": 23.7923,
        "longitude": 120.95264,
        "county": "南投縣",
        "township": "信義鄉",
        "address": "地利村開信巷18-6號",
        "phone": "0958184000"
    },
    {
        "id": "934695da-4e8f-41dc-8275-519e798b18e8",
        "name": "山裡面的嵐卡",
        "latitude": 23.7943056,
        "longitude": 120.96325,
        "county": "南投縣",
        "township": "信義鄉",
        "address": "地利村姑姑山(台16線臨29號3公里)",
        "phone": "0979625638"
    },
    {
        "id": "7471858e-6d41-4ffa-890d-dcfaa0d763a0",
        "name": "迪仰露營區",
        "latitude": 23.6006283,
        "longitude": 120.8871606,
        "county": "南投縣",
        "township": "信義鄉",
        "address": "望和巷12-4號",
        "phone": "0985925488"
    },
    {
        "id": "875687a5-be60-4763-b869-5d5ca7b74057",
        "name": "吉娜田園露營區",
        "latitude": 23.6281524,
        "longitude": 120.8829127,
        "county": "南投縣",
        "township": "信義鄉",
        "address": "信筆巷173號",
        "phone": "0980277042"
    },
    {
        "id": "8dfe5a5a-c6ef-4e5b-8afc-16e141d6f93a",
        "name": "雙龍部落伊希岸農場露營區",
        "latitude": 23.7645348,
        "longitude": 120.9473155,
        "county": "南投縣",
        "township": "信義鄉",
        "address": "無",
        "phone": "0963275383"
    },
    {
        "id": "56f1702d-3148-4974-a18c-5214f058b265",
        "name": "長城高山休閒農莊",
        "latitude": 23.7649701,
        "longitude": 120.9388046,
        "county": "南投縣",
        "township": "信義鄉",
        "address": "雙龍村光復巷5鄰89-6號",
        "phone": "0937769212"
    },
    {
        "id": "e67bb164-c73f-4fcd-98d7-8477b4fbefb7",
        "name": "吟玖鄉溫泉別館",
        "latitude": 23.5660195,
        "longitude": 120.92006,
        "county": "南投縣",
        "township": "信義鄉",
        "address": "南投縣信義鄉開高巷136-2號",
        "phone": null
    },
    {
        "id": "33bb808b-222a-49e0-901a-44af8519fd20",
        "name": "森谷漫活",
        "latitude": 23.7857498,
        "longitude": 121.0014116,
        "county": "南投縣",
        "township": "信義鄉",
        "address": "台16線2-1號",
        "phone": "0975388633"
    },
    {
        "id": "bf893689-1193-4265-afce-84dea806a563",
        "name": "瑪南吾瑪芙露營區",
        "latitude": 23.6070232,
        "longitude": 120.885331,
        "county": "南投縣",
        "township": "信義鄉",
        "address": "望美村望和巷19號望鄉部落",
        "phone": "0935897706"
    },
    {
        "id": "9576d6d8-7614-4284-a9e0-de4db50feba9",
        "name": "天時農莊",
        "latitude": 23.7884733,
        "longitude": 121.0013261,
        "county": "南投縣",
        "township": "信義鄉",
        "address": "河流坪",
        "phone": "0911798707"
    },
    {
        "id": "3614ea4a-439f-4ba1-89c0-26b4b6fef23e",
        "name": "惠源營地",
        "latitude": 23.628765,
        "longitude": 120.8743957,
        "county": "南投縣",
        "township": "信義鄉",
        "address": "無",
        "phone": "0985599338"
    },
    {
        "id": "b3df17f8-adad-4751-ad8f-74ebbdf36f0c",
        "name": "甲一仙營地",
        "latitude": 23.670314,
        "longitude": 120.863095,
        "county": "南投縣",
        "township": "信義鄉",
        "address": "自強村6鄰陽和巷12號",
        "phone": "0919055002"
    },
    {
        "id": "9918fda2-2ad9-4687-80e4-6ca1380032e8",
        "name": "小烏坵露營區",
        "latitude": 23.7846861,
        "longitude": 120.9493288,
        "county": "南投縣",
        "township": "信義鄉",
        "address": "光復巷8號",
        "phone": "0925272388"
    },
    {
        "id": "afe268a4-50b6-4f13-9f94-5a3385cc8ae7",
        "name": "法拉娜露營區",
        "latitude": 23.5667012,
        "longitude": 120.920474,
        "county": "南投縣",
        "township": "信義鄉",
        "address": "南投縣信義鄉開高巷110-7號",
        "phone": "0923587830"
    },
    {
        "id": "6000a108-edae-4f0b-a881-ebc570545058",
        "name": "達洛鞍休閒民宿",
        "latitude": 23.7979974,
        "longitude": 120.9404075,
        "county": "南投縣",
        "township": "信義鄉",
        "address": "地利村開信巷31之6旁",
        "phone": "0911742386"
    },
    {
        "id": "d1acac5b-c04c-4575-8d70-aa646e2c404e",
        "name": "塔古斯戶外營地",
        "latitude": 23.6031534,
        "longitude": 120.8853944,
        "county": "南投縣",
        "township": "信義鄉",
        "address": "望和巷卡里布安村",
        "phone": "0912455489"
    },
    {
        "id": "56f6d378-cca8-4d28-8aed-c4a939983cc2",
        "name": "五餅二魚咖啡露營",
        "latitude": 23.6020664,
        "longitude": 120.8884375,
        "county": "南投縣",
        "township": "信義鄉",
        "address": "望鄉部落聯絡道路127號",
        "phone": "0980110406"
    },
    {
        "id": "c47eadf4-4e70-4f8c-ae90-f7bbdcfced56",
        "name": "野放巴蒂露營區",
        "latitude": 23.79363757,
        "longitude": 120.9511805,
        "county": "南投縣",
        "township": "信義鄉",
        "address": "青雲路段656號",
        "phone": "0966525482"
    },
    {
        "id": "5126e241-2c13-4537-b1c6-5be90894880d",
        "name": "Tama singhu 天使營地",
        "latitude": 23.7827,
        "longitude": 120.94167,
        "county": "南投縣",
        "township": "信義鄉",
        "address": "雙龍村雙龍林道",
        "phone": "0939364453"
    },
    {
        "id": "e39b1263-3b04-410c-bc01-066c32597b9d",
        "name": "邦谷安楠樹屋休閒營地",
        "latitude": 23.7872841,
        "longitude": 120.945272,
        "county": "南投縣",
        "township": "信義鄉",
        "address": "光復巷79之8號",
        "phone": "0958494049"
    },
    {
        "id": "5b9beb9a-b263-406e-9505-36b9f3dae975",
        "name": "山谷露瑪露營區",
        "latitude": 23.79193,
        "longitude": 120.96807,
        "county": "南投縣",
        "township": "信義鄉",
        "address": "地利村",
        "phone": "0933475595"
    },
    {
        "id": "c46cb940-8092-452d-84da-23048c1583d5",
        "name": "瑪兒莎莎 Mal-Sa Sa 露營區",
        "latitude": 23.600552,
        "longitude": 120.886752,
        "county": "南投縣",
        "township": "信義鄉",
        "address": "望美村望和巷12-3號",
        "phone": "0928237348"
    },
    {
        "id": "25ffef24-9ce5-4425-b931-3da7cd227e0c",
        "name": "住在玉山園",
        "latitude": 23.5396956,
        "longitude": 120.9250592,
        "county": "南投縣",
        "township": "信義鄉",
        "address": null,
        "phone": "0931543048"
    },
    {
        "id": "c1e67e3c-8fba-48d0-9906-e5997d65c3e8",
        "name": "久美瑪夏兒露營區",
        "latitude": 23.61309,
        "longitude": 120.88347,
        "county": "南投縣",
        "township": "信義鄉",
        "address": "無",
        "phone": "0968325035"
    },
    {
        "id": "f052a0b3-d5f7-47b8-9130-ee0db52affb0",
        "name": "陌上冬梅露營區",
        "latitude": 23.6887889,
        "longitude": 120.8637202,
        "county": "南投縣",
        "township": "信義鄉",
        "address": "新開巷11之9號",
        "phone": "0975790508"
    },
    {
        "id": "edacc92e-7892-4cc3-a13c-9b52d9a930b6",
        "name": "曉樂園露營區.南投住宿",
        "latitude": 23.945363,
        "longitude": 120.6603699,
        "county": "南投縣",
        "township": "南投市",
        "address": "吉利路126號",
        "phone": "0975778598"
    },
    {
        "id": "2a313d21-c2e4-4f80-9a07-2582dfb942b9",
        "name": "心無境園區",
        "latitude": 23.9424079,
        "longitude": 120.6511792,
        "county": "南投縣",
        "township": "南投市",
        "address": "鳳山路742號",
        "phone": "0919299922"
    },
    {
        "id": "f9b5b728-278b-4977-a790-675ba1dd9a80",
        "name": "橫山仙境",
        "latitude": 23.889421,
        "longitude": 120.633899,
        "county": "南投縣",
        "township": "南投市",
        "address": "南投縣南投市八卦路橫山觀日步道",
        "phone": "0978298785"
    },
    {
        "id": "679a5441-0bd2-42fc-87a3-d0146d5e891f",
        "name": "水与松森林莊園",
        "latitude": 23.965349,
        "longitude": 120.944817,
        "county": "南投縣",
        "township": "埔里鎮",
        "address": "南村路9-7號",
        "phone": "0976182893"
    },
    {
        "id": "cb470960-224e-45cc-8a39-b1224f670a64",
        "name": "8508高地露營區",
        "latitude": 23.95651498,
        "longitude": 120.9153023,
        "county": "南投縣",
        "township": "埔里鎮",
        "address": "南投縣埔里鎮種瓜路33-5號",
        "phone": "0929004329"
    },
    {
        "id": "73dee6de-29ce-4956-83b5-073c96036a85",
        "name": "草湳濕地農場",
        "latitude": 23.9486386,
        "longitude": 120.9150979,
        "county": "南投縣",
        "township": "埔里鎮",
        "address": "種瓜路44號",
        "phone": "0934065630"
    },
    {
        "id": "66c57afe-6fd7-4228-a8eb-0b217652e401",
        "name": "聽瀑營地",
        "latitude": 23.9311193,
        "longitude": 121.0155488,
        "county": "南投縣",
        "township": "埔里鎮",
        "address": "武界路33-8號",
        "phone": "0932959361"
    },
    {
        "id": "4960b7c9-dfac-45fb-a636-2aab981c6d41",
        "name": "印象山水",
        "latitude": 23.95995,
        "longitude": 120.89309,
        "county": "南投縣",
        "township": "埔里鎮",
        "address": "成功里種瓜路120-9號",
        "phone": "0932066835"
    },
    {
        "id": "77b8340b-02f1-40a2-8a9a-dc8945efd717",
        "name": "茶吾此露",
        "latitude": 23.9579079,
        "longitude": 120.9138034,
        "county": "南投縣",
        "township": "埔里鎮",
        "address": "種瓜路33-13號",
        "phone": "0977380860"
    },
    {
        "id": "c31a8e1d-ae55-45f1-83b9-9432783ae158",
        "name": "獅象開心",
        "latitude": 23.939438,
        "longitude": 120.940142,
        "county": "南投縣",
        "township": "埔里鎮",
        "address": "桃米巷9-2號",
        "phone": "0937291657"
    },
    {
        "id": "d2fa93f9-df91-416f-bbae-eb81f146a324",
        "name": "埔里紫月樹葡萄營地",
        "latitude": 23.9446445,
        "longitude": 120.9510149,
        "county": "南投縣",
        "township": "埔里鎮",
        "address": "水墻巷5號",
        "phone": "0912982445"
    },
    {
        "id": "39c059ab-1e96-4793-b44d-ec8ef7f082ca",
        "name": "合成仙谷露營區",
        "latitude": 24.0216639,
        "longitude": 120.9173775,
        "county": "南投縣",
        "township": "埔里鎮",
        "address": "合成巷22號",
        "phone": "0953461458"
    },
    {
        "id": "42c6ac30-d359-4900-b263-5dbd4d5be45f",
        "name": "遇見東平莊薗",
        "latitude": 24.0330862,
        "longitude": 120.9523112,
        "county": "南投縣",
        "township": "埔里鎮",
        "address": "覆金路21之1號",
        "phone": "0932539586"
    },
    {
        "id": "437b04b0-b99f-4585-a104-88104654faf7",
        "name": "樂活森林農場",
        "latitude": 23.9351106,
        "longitude": 120.9277077,
        "county": "南投縣",
        "township": "埔里鎮",
        "address": "桃米路55-1號",
        "phone": "0937219523"
    },
    {
        "id": "25dd51a2-61a4-4d8a-9c18-2022312104cb",
        "name": "ToMe桃米生態露營區",
        "latitude": 23.943899,
        "longitude": 120.9032391,
        "county": "南投縣",
        "township": "埔里鎮",
        "address": "種瓜路66-1號",
        "phone": "0930012167"
    },
    {
        "id": "c53978c4-edbe-4525-83ec-54c885e19ca2",
        "name": "玫花露",
        "latitude": 24.0051808,
        "longitude": 120.9445926,
        "county": "南投縣",
        "township": "埔里鎮",
        "address": "東峰路18號",
        "phone": "0972326389"
    },
    {
        "id": "6710878e-3e25-497f-9214-a12c252b20b2",
        "name": "露宿Lùsù Camping",
        "latitude": 23.93748193,
        "longitude": 120.903161,
        "county": "南投縣",
        "township": "埔里鎮",
        "address": "水上巷25-1號",
        "phone": "0975321550"
    },
    {
        "id": "904f4b46-d59e-4cde-8116-f5fa75e640d5",
        "name": "湯尼瑪麗露營區",
        "latitude": 23.9561413,
        "longitude": 120.9113494,
        "county": "南投縣",
        "township": "埔里鎮",
        "address": "種瓜路",
        "phone": "0933219398"
    },
    {
        "id": "78ecc762-072d-4bfc-a8e9-265ec1515409",
        "name": "蛙揪愛露營",
        "latitude": 23.9565188,
        "longitude": 120.9106732,
        "county": "南投縣",
        "township": "埔里鎮",
        "address": "種瓜路33-9號",
        "phone": "0931681148"
    },
    {
        "id": "46035278-d1aa-4c0e-84df-274b71093766",
        "name": "桃米山生態露營區",
        "latitude": 23.9468373,
        "longitude": 120.9016988,
        "county": "南投縣",
        "township": "埔里鎮",
        "address": "種瓜路52號",
        "phone": "0937262758"
    },
    {
        "id": "f4f2f3e3-5bd9-4350-bbe1-1ea6191dc4b0",
        "name": "顏氏牧場",
        "latitude": 23.9323611,
        "longitude": 120.906349,
        "county": "南投縣",
        "township": "埔里鎮",
        "address": "水上巷28號",
        "phone": "0937888102"
    },
    {
        "id": "f3e1da5d-1b8c-4ff3-bab9-41771f1fd0a3",
        "name": "龍泉營地",
        "latitude": 23.9261682,
        "longitude": 121.0039022,
        "county": "南投縣",
        "township": "埔里鎮",
        "address": "武界路28之10號",
        "phone": "0910543983"
    },
    {
        "id": "7c6f9c8a-861c-491f-bc17-3643b5874486",
        "name": "農家樂露營區",
        "latitude": 23.9281687,
        "longitude": 121.0095793,
        "county": "南投縣",
        "township": "埔里鎮",
        "address": "麒麟里武界路35-3號",
        "phone": "0963577718"
    },
    {
        "id": "70afbd07-4317-4d95-872b-8a04e475a6b3",
        "name": "水墻映月景觀露營區",
        "latitude": 23.944746,
        "longitude": 120.944947,
        "county": "南投縣",
        "township": "埔里鎮",
        "address": "水墻巷8-8號",
        "phone": "0985845689"
    },
    {
        "id": "2a54801c-abae-4189-9781-758e1dca2030",
        "name": "麒麟岩臼苑",
        "latitude": 23.93447,
        "longitude": 120.98883,
        "county": "南投縣",
        "township": "埔里鎮",
        "address": "武界路7-1號",
        "phone": "0921378861"
    },
    {
        "id": "9ac7517a-e2c4-4fcd-a53c-349122738b6b",
        "name": "宸羽坊衫",
        "latitude": 23.9465199,
        "longitude": 120.9409692,
        "county": "南投縣",
        "township": "埔里鎮",
        "address": "桃米路12-15號",
        "phone": "0903853827"
    },
    {
        "id": "7c5867fb-e435-4e31-a548-1ee43882a2a0",
        "name": "成功秘境露營場",
        "latitude": 23.9582029,
        "longitude": 120.8938625,
        "county": "南投縣",
        "township": "埔里鎮",
        "address": "種瓜路120-8號",
        "phone": "0972496517"
    },
    {
        "id": "c1e8400e-9e25-49f2-b7b6-bb3f25235e70",
        "name": "福長果園露營區",
        "latitude": 24.0120246,
        "longitude": 120.9748803,
        "county": "南投縣",
        "township": "埔里鎮",
        "address": "福長路100 號",
        "phone": "0921931984"
    },
    {
        "id": "8e41796a-640d-4c0e-9489-e24918a7fb15",
        "name": "LOLO農場-休閒露營園區",
        "latitude": 24.0238723,
        "longitude": 120.9526784,
        "county": "南投縣",
        "township": "埔里鎮",
        "address": "眉原路3號",
        "phone": "0905224119"
    },
    {
        "id": "c1d0d02d-a8ae-4272-90a6-4f5a3edf9f36",
        "name": "mushroom 山林民宿露營區",
        "latitude": 23.9795613,
        "longitude": 121.009458,
        "county": "南投縣",
        "township": "埔里鎮",
        "address": "中山路一段175-1號",
        "phone": "0965329868"
    },
    {
        "id": "82f42730-a7d3-4f4b-a517-3f3d6f791dbc",
        "name": "綠舍潭果農場",
        "latitude": 23.964508,
        "longitude": 120.9993608,
        "county": "南投縣",
        "township": "埔里鎮",
        "address": "無",
        "phone": "0933553753"
    },
    {
        "id": "b5e6cf26-7cb7-40ad-9402-8886123585c0",
        "name": "愛聚時光森林露營區(原名外寓民宿露營區)",
        "latitude": 23.95037,
        "longitude": 120.91935,
        "county": "南投縣",
        "township": "埔里鎮",
        "address": "種瓜路37-1號",
        "phone": "0936288804"
    },
    {
        "id": "2adb67a7-7eba-44be-a97e-9add21435c34",
        "name": "賽德克公主之熊本部親子露營區",
        "latitude": 23.964967,
        "longitude": 121.000647,
        "county": "南投縣",
        "township": "埔里鎮",
        "address": "南投縣埔里鎮鯉魚路22-7號",
        "phone": "0980618781"
    },
    {
        "id": "8c959f74-c1dc-4ece-b3bf-3459eed3b6f5",
        "name": "愛玩客露營區",
        "latitude": 23.9405271,
        "longitude": 120.9260426,
        "county": "南投縣",
        "township": "埔里鎮",
        "address": "桃米巷52-12號",
        "phone": null
    },
    {
        "id": "2e0d8f58-2324-44ef-9dce-686359b908f5",
        "name": "虎嘯山莊",
        "latitude": 23.9640674,
        "longitude": 120.9895489,
        "county": "南投縣",
        "township": "埔里鎮",
        "address": "南投縣埔里鎮知安路100號",
        "phone": "0905700129"
    },
    {
        "id": "9c419109-bcbb-4e99-a1bc-c48659f0d654",
        "name": "燈火嵐杉野奢露營區inHere",
        "latitude": 23.95648769,
        "longitude": 120.915459,
        "county": "南投縣",
        "township": "埔里鎮",
        "address": "種瓜路33-5號",
        "phone": "0958998309"
    },
    {
        "id": "0cec8da9-e0ce-4e87-9546-287e6dcd6461",
        "name": "童心園露營區",
        "latitude": 24.0912063,
        "longitude": 120.9458441,
        "county": "南投縣",
        "township": "埔里鎮",
        "address": "中成路13之2號",
        "phone": "0928348428"
    },
    {
        "id": "25916103-8e9a-40d8-8bab-224e9515d0ae",
        "name": "埔里獨角仙親子露營生態園區",
        "latitude": 24.014235,
        "longitude": 120.9228072,
        "county": "南投縣",
        "township": "埔里鎮",
        "address": "西安路三段167巷103號",
        "phone": "0936175376"
    },
    {
        "id": "490c3ef2-68d0-4c8f-99d9-2d50b8c23b89",
        "name": "綠野森林農場",
        "latitude": 23.9844096,
        "longitude": 120.9749549,
        "county": "南投縣",
        "township": "埔里鎮",
        "address": "西安路一段550巷12-1號",
        "phone": "0977001535"
    },